listing_id,vertical,name,slug,lat,lng,current_region_text,proposed_region_id,proposed_region_name,proposed_region_slug
00015425-a154-43a1-8266-f724cb86418d,craft,Hoskings Jewellers,hoskings-jewellers-vic,-38.1750203,146.2609035,,,,
0005c0e5-03ff-4ec2-8412-e90c473df0f8,craft,Ballarat Custom Furniture and Restoration,ballarat-custom-furniture-and-restoration,-37.605405,143.781099,,,,
0006b7d1-cadd-4679-932f-d21d153057c4,sba,Cedar Fox Distilling Co.,cedar-fox-distilling-co,-37.7318404,144.9614816,Coburg North,80bed70c-cbb4-4ef0-b018-4f0b72de8ebb,Melbourne,melbourne
0011bc7f-253e-448c-87f2-6c5b21a4f057,craft,Creative Play & Art Centre Ballarat,creative-play-and-art-centre-ballarat,-37.5426031,143.7926225,,,,
0014b4b8-e7ef-4af0-875b-ec363b29bf6f,rest,Cubby and Co at Mount Majura Vineyard,cubby-and-co-at-mount-majura-vineyard,-35.284464,139.501612,"Lime Kiln Rd, Australian Capital Territory",,,
001a53da-6e5d-4149-b758-65b43251b88c,rest,Raynella Alpaca Farmstay B & B,raynella-alpaca-farmstay-b-b,-37.739374,145.433881,54 Ingram Rd,80bed70c-cbb4-4ef0-b018-4f0b72de8ebb,Melbourne,melbourne
001ccd4e-b99c-4729-b2a7-77f7dce6a357,sba,Mount Nathan Winery,mount-nathan-winery,-27.9986171,153.2603912,Mount Nathan,,,
001e380b-8bbc-4e0e-afd1-8db661c96375,craft,Zinongo Gallery,zinongo-gallery,-32.0677875,115.7602418,,6db96085-9bfe-45be-a2a9-e82b5fe66c91,Perth,perth
001ff2b1-615f-4182-98d1-ef239a675fe3,collection,Castlemaine Botanical Gardens,castlemaine-botanical-gardens,-37.055568,144.21246,Central Victoria,,,
0027e809-b01b-4730-b6eb-8e76d72c89f4,craft,Cairns Jewellery Boutique,cairns-jewellery-boutique,-16.9229938,145.7777907,,,,
0030c072-6500-4f6a-be75-61190631d3db,collection,Port Macquarie Regional Museum,port-macquarie-regional-museum,-31.4333,152.9082,Port Macquarie,,,
003bad58-f809-44ff-a394-a35d991fbb41,craft,Nicole Viney Jewellery,nicole-viney-jewellery,-41.164552,146.233841,Cradle Country,,,
003f0d1e-ea70-413f-adf6-5bc4f4c5aab7,sba,Stag Lane Farm Distillery,stag-lane-farm-distillery,-37.6435304,145.4118746,Yarra Glen,80bed70c-cbb4-4ef0-b018-4f0b72de8ebb,Melbourne,melbourne
004c6a7c-8862-47b1-82bb-f847a39515bc,sba,Castle Rock Estate,castle-rock-estate,-34.6906711,117.9462656,Porongurup,,,
005f12be-8e2b-4c91-8813-06f7011d0d5e,collection,Logan Art Gallery,logan-art-gallery,-27.651753,153.110859,Scenic Rim,,,
0078fe3a-8a19-4d50-b110-1b108d4138b6,found,Bottom of the Harbour Antiques,bottom-of-the-harbour-antiques,-28.868947,153.417721,46 Red Ln,,,
00827c26-6b5a-475e-8ba0-9758e97bd2f8,corner,The Best Little Bookshop In Town,the-best-little-bookshop-in-town,-34.054561,151.15166,97 Cronulla St,926b0253-8c9a-4734-bc1a-57156fad7006,Sydney,sydney
00a2fc44-1f8f-473d-9828-a86e39cdcf90,sba,Bowen Estate,bowen-estate,-37.342429,140.845593,Penola,,,
00a86419-0a84-4f00-b3b2-df6a192cce44,collection,Flecker Botanic Gardens,flecker-botanic-gardens,-16.899603,145.747702,Cairns & Tropical North,,,
00b3d744-b2c3-4299-83f9-ce14978dfc27,rest,Closeburn House,closeburn-house,-33.579469,150.245603,2 Closeburn Dr,,,
00b94668-28e4-4bbb-a220-d80b0d9a88cf,craft,O'Gradey Glass,ogradey-glass,-33.7273419,150.4430116,,926b0253-8c9a-4734-bc1a-57156fad7006,Sydney,sydney
00ba1bf0-3ab9-4e2c-8310-c5a106925193,craft,Green Studio,green-studio,-37.8792851,147.9907558,,,,
00ba523a-b0bb-4349-9625-5416ab8be32e,field,Mount Sonder Lookout,mount-sonder-lookout,-23.6333,132.3667,Red Centre,,,
00bb7c77-c652-4299-979a-3b10d5544753,sba,Frenchies Bistro & Brewery,frenchies-brewery,-33.9168286,151.2029584,Sydney,926b0253-8c9a-4734-bc1a-57156fad7006,Sydney,sydney
00ca56d6-06cf-416a-97d7-980d944c2aa5,craft,Fletcher Print,fletcher-print,-37.5767778,143.8228069,,,,
00cfe985-4b17-417c-9125-d7913f0da087,fine_grounds,Red Mud Coffee Roasters,red-mud-coffee-roasters,-26.770674,152.861222,"43 McCarthy Road, Maleny",,,
00d0ef79-594c-41f4-8c6a-10ec2dc64bd4,collection,Beechworth Historic Precinct,beechworth-historic-precinct,-36.3582,146.6882,Beechworth,,,
00d113f1-59eb-413c-8dd3-5b15541d1f88,craft,Bass View Timber Creations,bass-view-timber-creations,-40.996884,147.0926119,,,,
00d33234-6ec0-4ed0-8e7a-c82d99f69588,craft,Roots Custom Made Furniture,roots-custom-made-furniture,-37.7999259,144.9921001,Melbourne,80bed70c-cbb4-4ef0-b018-4f0b72de8ebb,Melbourne,melbourne
00ead7bf-b982-460f-99f2-20874e1f4b52,sba,Riversdale Estate,riversdale-estate,-42.8021848,147.4419861,East Coast,44270aeb-3822-4d3a-913f-fd55f99f6f8c,Hobart & Southern Tasmania,hobart
00f320d7-86af-4032-ab3a-ac40644b0a3f,sba,Elysian Springs,elysian-springs,-34.7422429,139.0726037,Mount Pleasant,,,
00f7549c-05a9-4c9a-a74c-89dc9d090fa1,sba,Brick Lane Shed | Brick Lane Brewing Co,brick-lane-shed-brick-lane-brewing-co,-37.8077895,144.9564333,Melbourne,80bed70c-cbb4-4ef0-b018-4f0b72de8ebb,Melbourne,melbourne
00ff39fc-c86d-469e-a27e-e7a8f3937c04,craft,"Fleece, Fibre, Yarn",fleece-fibre-yarn,-41.3986712,147.0844794,,,,
010e428a-c8ab-4119-93fe-0867ca2abc35,corner,The Mill Collective,the-mill-collective,-32.05306,115.97833,43 Attfield St,6db96085-9bfe-45be-a2a9-e82b5fe66c91,Perth,perth
010e692f-20f6-4df2-a50e-573c8407b698,rest,Dairy Park Farm Stay,dairy-park-farm-stay,-33.687969,149.142664,30 Hilton Lane,ada12443-7cd7-432d-9bb5-37a735e47cfc,Orange,orange
01136b89-093e-4dd2-99f8-29d2b9c6c705,craft,weavery,weavery,-26.7278919,153.018506,,,,
011a4a8a-1658-4cd8-b6be-922c34312219,rest,Australian Heritage Hotel,australian-heritage-hotel,-33.859655,151.207034,Sydney,926b0253-8c9a-4734-bc1a-57156fad7006,Sydney,sydney
011ccbf4-8eae-46f3-9381-7cbe37fd0aa9,sba,MOONBURN Brewing,moonburn-brewing,-34.9070372,138.8741353,Lobethal,214cba3e-b81d-4a5e-85cf-c7c49634d6fc,Adelaide Hills,adelaide-hills
01276374-1fcf-49e7-99ec-862d55b2c41a,craft,W.Burke Chairmaker,w-burke-chairmaker,-28.633805,153.530902,,d5d8e24f-78cf-4c8a-9266-94f140f3d8c2,Byron Bay,byron-bay
0128ee58-0b4c-4734-a175-ea6e6b26c747,craft,Russell Street Studios,russell-street-studios,-41.4275641,147.1362378,,,,
012b5100-ca71-4e7d-b75a-16eadca53368,fine_grounds,Patricia Coffee Brewers,patricia-coffee-brewers,-37.8128,144.9598,Melbourne CBD,80bed70c-cbb4-4ef0-b018-4f0b72de8ebb,Melbourne,melbourne
012ee5a7-811a-46d1-b8c1-74ab2d365f74,collection,Illawarra Performing Arts Centre,illawarra-performing-arts-centre,-34.426486,150.898375,Southern Highlands,,,
01304fd7-23f0-4ca9-bafe-de7fcfffc086,craft,EPRINT,eprint,-12.4277174,130.881739,,13ce91e7-efed-493e-9c0a-1e7fa8b90993,Darwin & Top End,darwin-top-end
013d1265-269a-49bb-bff5-c9e722692921,craft,Woodsong Fine Furniture,woodsong-fine-furniture,-16.9233951,145.7738473,,,,
014132de-7bb3-4c36-917e-fd74cabfb23b,sba,Cumulus Wines,cumulus-wines,-32.977768,148.976376,Orange & Central West,ada12443-7cd7-432d-9bb5-37a735e47cfc,Orange,orange
01436eba-b469-41a4-a4a6-30622778b230,collection,Flinders Island Museum,flinders-island-museum,-40.119511,148.017005,Whitemark,,,
015b62f6-dd6d-49e9-92f1-781820d3e319,craft,Sprint Screenprinting & Embroidery,sprint-screenprinting-and-embroidery,-31.9886627,115.9162554,Perth,6db96085-9bfe-45be-a2a9-e82b5fe66c91,Perth,perth
01615b91-0d5d-4182-8b79-6b84716010c9,craft,Aarwun Gallery,aarwun-gallery,-35.1908052,149.0846407,,755af99b-f2ba-478a-9915-b431b369ad7f,Canberra District,canberra-district
0188f307-6d00-4a8b-b85a-c2c0cc0c03b8,craft,Adelaide Furniture And Kitchens,adelaide-furniture-and-kitchens,-34.9285201,138.591794,Adelaide,09c0c80f-4213-40b5-9ecd-df5f0f557f2e,Adelaide,adelaide
01ab3323-b025-4494-bee0-7235ac746026,collection,Whyalla Maritime Museum,whyalla-maritime-museum,-32.776976,137.532558,Whyalla,,,
01b3406d-a1dd-4aa7-8cb6-153863faa3ed,sba,Pindarie,pindarie,-34.5261099,138.8724014,Gomersal,,,
01b363bf-19d9-4299-9736-f1bf386653df,sba,Hollick Wines,hollick-wines,-37.3549687,140.8428603,Coonawarra,,,
01ba378f-3c46-402f-81c3-f849c7373b2f,sba,Gilbert Wines,gilbert-wines,-32.5773276,149.5961237,Mudgee,7537a040-b426-4e3c-8d27-de9c8315810c,Mudgee,mudgee
01ba8ea6-3abd-428f-9cde-b84c98f5a833,craft,MUDDLE Ceramics Workshop,muddle-ceramics-workshop,-42.8614279,147.4030833,,44270aeb-3822-4d3a-913f-fd55f99f6f8c,Hobart & Southern Tasmania,hobart
01be7198-8b89-4ad0-92ab-f4e51c19eac1,craft,Sweeney Bros Screen Printing,sweeney-bros-screen-printing,-33.9008145,151.2542565,Sydney,926b0253-8c9a-4734-bc1a-57156fad7006,Sydney,sydney
01d0c06e-566d-45d0-85ee-83dbeb69f948,sba,Tallagandra Hill Winery,tallagandra-hill-winery,-35.0498478,149.1693737,Gundaroo,,,
01d4ce8b-3d11-41bb-ab53-965ec73e212c,collection,Mbantua Gallery,mbantua-gallery,-23.6994,133.8811,Alice Springs,,,
01d9bfdb-148b-4a36-af0f-b87a4e52029f,craft,Z & G Carpentry,z-and-g-carpentry,-37.338325,144.1401356,,,,
01de23b2-0d46-45ad-bc03-c64d8e30b4db,found,Berkelouw Books Paddington,berkelouw-books-paddington,-33.886,151.2268,Sydney,926b0253-8c9a-4734-bc1a-57156fad7006,Sydney,sydney
01e69e64-2729-48f1-bc8d-001f0fc870ac,craft,Revive Timber Designs,revive-timber-designs,-26.4521,153.0165848,,,,
01ef3e3c-b5c4-4f37-8d7f-636da8333d7d,craft,Readback Books & Aboriginal Art Gallery,readback-books-and-aboriginal-art-gallery,-12.4641413,130.8429602,,13ce91e7-efed-493e-9c0a-1e7fa8b90993,Darwin & Top End,darwin-top-end
01f3c46a-3eac-44ef-9970-fe860ad9911d,sba,Sandhurst Ridge,sandhurst-ridge,-36.7149314,144.1519775,Bendigo,,,
01f91b2c-2e2a-4109-b7be-6cc81224ff7e,sba,Crack-Of-Noon,crack-of-noon,-43.1882461,147.0463301,Lymington,44270aeb-3822-4d3a-913f-fd55f99f6f8c,Hobart & Southern Tasmania,hobart
01fbfff9-be91-4412-81b2-ee6ed4c65f35,found,The Paperback Bookshop,the-paperback-bookshop,-37.813,144.968,Melbourne,80bed70c-cbb4-4ef0-b018-4f0b72de8ebb,Melbourne,melbourne
023efdfb-2ddd-4865-b7a0-49d4e2bb9ac6,rest,Luna Lodge Tasmania,luna-lodge-tasmania,-42.777957,147.675882,"Wiggins Rd, Wattle Hill TAS",44270aeb-3822-4d3a-913f-fd55f99f6f8c,Hobart & Southern Tasmania,hobart
024eca2c-acab-4a21-bd42-e87c0c345629,craft,Screen Print West,screen-print-west,-31.8644877,115.9012557,,6db96085-9bfe-45be-a2a9-e82b5fe66c91,Perth,perth
02673e6c-dbdf-4a98-8317-076f7a283877,sba,Plume Estate,plume-estate,-32.0080179,116.0993054,Bickley,6db96085-9bfe-45be-a2a9-e82b5fe66c91,Perth,perth
02703c19-7767-4c0f-84ae-401236846ee1,fine_grounds,Drysdale Corner Cafe,drysdale-corner-cafe,-38.17,144.569,Bellarine Peninsula,,,
02716b71-d846-4220-bdca-eb6b16fc4d9b,craft,Craftlandia,craftlandia,-37.3471209,144.1550343,,,,
028786be-4d36-4d43-8471-7157916060d9,sba,Little Creatures Cider,little-creatures-cider-geelong,-38.164952,144.3617283,Geelong,,,
02aaa4d5-a86f-45a9-9e31-2c85d8784ad8,craft,Clay Wollongong,clay-wollongong,-34.4203309,150.8939451,,,,
02b619f3-8b79-4396-a35f-3f6f65823265,sba,Sydney Brewery Hunter Valley,sydney-brewery-hunter-valley,-32.7811334,151.3479258,Lovedale,dbeebdbb-4238-4a82-b4d6-00323a0f0c44,Hunter Valley,hunter-valley
02b787c8-4a47-4521-ba3b-33dbb9df0968,sba,Wolf Lane Distillery,wolf-lane-distillery,-16.9219966,145.7779388,Byron Bay,,,
02c14d18-5ae6-40aa-9617-bc1fe82d28f1,sba,Mayford Winery,mayford-winery,-36.68798,146.9032,Porepunkah,,,
02c295b6-811f-416b-b461-349f0e186e50,craft,Bett Gallery,bett-gallery,-42.8825749,147.3260719,Hobart City,22815e33-8179-4e95-aa4e-13acb289e0e9,Hobart City,hobart-city
02c55bf1-f915-48ec-aae1-442ea3eff29a,collection,Queen Victoria Museum and Art Gallery,queen-victoria-museum-and-art-gallery,-41.425499,147.139202,Launceston & Tamar Valley,,,
02c5a95d-8a68-4911-a9ae-b6d7a2f83027,craft,Lake Cathie Pottery,lake-cathie-pottery,-31.5442011,152.8553421,,,,
02c81d54-2bf8-4b43-bcce-c859e3a6bc4c,craft,Gabbinbar,gabbinbar,-27.6096771,151.958405,,,,
02d20ae1-e720-4278-9553-12fa5d5f0118,collection,Emu Valley Rhododendron Garden,emu-valley-rhododendron-garden,-41.099282,145.907305,Cradle Country,,,
02d2c461-9666-40f1-8a87-6a1e5500fa31,craft,Smartprint Group,smartprint-group,-27.5695488,151.9512539,,,,
02dfbdf0-6a7a-4cbe-97ba-478c4bedbf67,collection,Everglades House and Gardens,everglades-house-and-gardens,-33.721714,150.337225,Blue Mountains,926b0253-8c9a-4734-bc1a-57156fad7006,Sydney,sydney
02e1f59a-31d9-4740-a0ee-5560ddb3ce85,rest,guestlands,guestlands,-33.631517,151.043772,"10 Blacks Road, Arcadia",926b0253-8c9a-4734-bc1a-57156fad7006,Sydney,sydney
02eaf602-ec6f-4fb5-9a32-10ebfd3ebe56,sba,Mayfield Vineyard,mayfield-vineyard,-33.3147339,149.195851,Orange,ada12443-7cd7-432d-9bb5-37a735e47cfc,Orange,orange
02f536d1-d401-418f-a23c-e4708b15cbdb,collection,Greenough Historical Settlement,greenough-historical-settlement,-28.854427,114.654146,Greenough,,,
0309f553-15f0-4ff3-a9da-1ef4c21cb79f,collection,Ravenswood Heritage Centre,ravenswood-heritage-centre,-20.097937,146.886097,Ravenswood,,,
031c115b-6afb-443a-9996-c242fd0279c9,craft,Brisbane Jewellers Workshop,brisbane-jewellers-workshop,-27.469153,153.025637,Brisbane,361cd83c-0c7a-4725-b7d5-b4982ee0ec07,Brisbane,brisbane
031cc6c7-902e-48e1-a6db-253425bff97a,craft,Art Images Gallery,art-images-gallery,-34.9218347,138.6264291,Adelaide,09c0c80f-4213-40b5-9ecd-df5f0f557f2e,Adelaide,adelaide
0340a8c5-6b3f-4fda-8a86-b9cf0488ddc4,sba,4 Pines Brewing,four-pines-brewing,-33.7648138,151.2773626,Sydney,926b0253-8c9a-4734-bc1a-57156fad7006,Sydney,sydney
034f60db-4d38-4ce3-bf13-af06b204f277,found,Brotherhood of St Laurence Clifton Hill,brotherhood-clifton-hill,-37.788,144.995,Melbourne,80bed70c-cbb4-4ef0-b018-4f0b72de8ebb,Melbourne,melbourne
0353327e-8397-47fd-88e0-41c1328ceaec,sba,Reef Distillers,reef-distillers,-23.1596221,150.708752,Hidden Valley,,,
035ae7e4-9be8-4f4d-a6a3-e4d0d9c91caa,craft,Crystalline Pottery,crystalline-pottery,-31.577307,152.812014,,,,
03601bc5-c922-4f87-8fdc-1daade6cb7b6,collection,Bright Botanical Gardens,bright-botanical-gardens,-36.730731,146.983389,Bright,,,
03675757-f24c-4ce1-9585-91c62259e4a9,sba,Hold Fast Distillery,hold-fast-distillery,-35.4394858,149.8001977,Braidwood,,,
0385d832-e98b-4197-833c-20f93aa5a9b0,sba,Petaluma,petaluma,-34.9499641,138.9041705,Adelaide Hills,214cba3e-b81d-4a5e-85cf-c7c49634d6fc,Adelaide Hills,adelaide-hills
038bc85c-910c-4e92-a684-d2505d37b761,craft,The Artisan Press,the-artisan-press,-28.6349012,153.5795776,,d5d8e24f-78cf-4c8a-9266-94f140f3d8c2,Byron Bay,byron-bay
0395311b-cb17-4377-bafa-f7b58f7540b4,collection,Museum of Old and New Art,museum-of-old-and-new-art,-42.811867,147.259448,Hobart & Southern Tasmania,44270aeb-3822-4d3a-913f-fd55f99f6f8c,Hobart & Southern Tasmania,hobart
03954fda-2bc4-4b1f-a62c-c6e6e0950c3d,collection,Charters Towers Heritage Precinct,charters-towers-heritage-precinct,-20.080749,146.254908,Charters Towers,,,
0397413e-fe65-4e4b-82d8-c2cf4859f453,craft,The Art Gallery of Western Australia | AGWA,the-art-gallery-of-western-australia-agwa,-31.90544,115.853935,Perth,6db96085-9bfe-45be-a2a9-e82b5fe66c91,Perth,perth
039d107e-b955-4db9-9330-f54f7587ab45,craft,Bittondi PAI Studio,bittondi-pai-studio,-34.9126871,138.5135155,,09c0c80f-4213-40b5-9ecd-df5f0f557f2e,Adelaide,adelaide
039f9f1e-3194-41d7-98b9-d3cd0d3e331e,craft,The Design Studio,the-design-studio,-34.4723496,138.9954229,,,,
03adb27b-670e-4705-a268-755ed43c840c,found,Mitchell Road Antique & Design Centre,mitchell-road-antiques,-33.902,151.195,Sydney,926b0253-8c9a-4734-bc1a-57156fad7006,Sydney,sydney
03b0ac76-a239-4a8d-b235-e4445b69063d,sba,Rusden Wines,rusden-wines,-34.5212211,138.9936218,Vine Vale,,,
03cc4d00-ecff-471d-9f83-016353f23c26,sba,Penni Ave Distillery,penni-ave-distillery,-38.3764597,144.8070749,Rye,80bed70c-cbb4-4ef0-b018-4f0b72de8ebb,Melbourne,melbourne
03d3f28a-14d5-4453-b945-b63c5ef9b38a,sba,"Trentham Estate - Winery, Cellar Door & Restaurant",trentham-estate-winery-cellar-door-and-restaurant,-34.2303114,142.2461703,Trentham Cliffs,,,
03d49909-28e9-45c6-bff5-263e4a729414,craft,Blue Print Screen Art,blue-print-screen-art,-31.8651109,115.9060265,,6db96085-9bfe-45be-a2a9-e82b5fe66c91,Perth,perth
03e063d5-fada-4be8-ae36-0bbbd0ab625b,fine_grounds,23 Degrees Coffee Roasters,23-degrees-coffee-roasters,-37.961973,145.03925,1 Belrose Ave,80bed70c-cbb4-4ef0-b018-4f0b72de8ebb,Melbourne,melbourne
03edf34b-d02a-498b-8e0f-be43eee47492,craft,Artfusion Studio & Gallery,artfusion-studio-and-gallery,-38.5278318,145.4480679,,,,
04035502-c8a6-499c-8f8f-96698adbda03,sba,Iron Hills Meadery,iron-hills-meadery,-28.1019139,153.4140166,Burleigh Heads,,,
04050c67-d612-4a03-bbbe-f1e9b2244cf7,collection,Glen Innes History & Heritage Centre,glen-innes-history-and-heritage-centre,-29.733775,151.72516,Glen Innes,,,
040a2199-624f-4a3b-a135-c70a11d419be,craft,Acanthus Studios,acanthus-studios,-33.7160834,150.311019,,926b0253-8c9a-4734-bc1a-57156fad7006,Sydney,sydney
04331b0e-b884-440a-9990-1866c775ee70,craft,Figtree Stained Glass,figtree-stained-glass,-34.439143,150.8571717,,,,
04348cd4-1995-4294-9d1d-a0f92cd92adf,craft,Vitisculpture Christies Beach,vitisculpture-christies-beach,-35.1392471,138.4801363,,09c0c80f-4213-40b5-9ecd-df5f0f557f2e,Adelaide,adelaide
04403239-91ed-419f-a350-afc21c7a44de,sba,Yal Yal Estate,yal-yal-estate,-38.37973,145.069214,Merricks,80bed70c-cbb4-4ef0-b018-4f0b72de8ebb,Melbourne,melbourne
0443256e-031a-40ae-a246-094af372324f,sba,Mudgee Wine Adventures,mudgee-wine-adventures,-32.6085941,149.6029042,Mudgee,7537a040-b426-4e3c-8d27-de9c8315810c,Mudgee,mudgee
044d7548-449d-44b1-9f3c-88487afb1867,corner,Little Settlers,little-settlers-paddington-qld,-27.461,153.007,Brisbane,361cd83c-0c7a-4725-b7d5-b4982ee0ec07,Brisbane,brisbane
0450d0e5-1e78-491c-82fb-bf7b93b01625,sba,Big Tree Distillery Door Tasting Room,big-tree-distillery-door-tasting-room,-37.2896044,144.6422243,Newham,,,
04740688-3b86-4848-b326-b052c729f25f,found,Salvos Stores Surry Hills,salvos-surry-hills,-33.8832,151.211,Sydney,926b0253-8c9a-4734-bc1a-57156fad7006,Sydney,sydney
047d127a-2c43-460a-b985-bfaa2618867c,found,Scottys Trading,scottys-trading,-28.008497,153.398334,Gold Coast Hinterland,,,
0481bcb9-dfb5-4b66-ae87-abb2d481697e,collection,Gilgandra Rural Museum,gilgandra-rural-museum,-31.828692,148.638487,Gilgandra,,,
04927f66-bca1-4471-a13d-3f362cc87e15,rest,Aldgate Valley Bed and Breakfast,aldgate-valley-bed-and-breakfast,-35.036268,138.753347,"118 Aldgate Valley Rd, Mylor SA",214cba3e-b81d-4a5e-85cf-c7c49634d6fc,Adelaide Hills,adelaide-hills
04a33459-6379-4601-a89a-a7cc8ff2b306,sba,Pemberley of Pemberton | Book in for a Wine Experience,pemberley-of-pemberton-book-in-for-a-wine-experience,-34.3939908,116.0535295,Eastbrook,,,
04a84685-dbae-4779-8352-052cdcca756f,sba,The Craft Beer and Cider Garden,the-craft-beer-and-cider-garden,-31.9479187,115.8576672,Northbridge,6db96085-9bfe-45be-a2a9-e82b5fe66c91,Perth,perth
04a9c386-487f-411a-8828-fd0cd125d4d7,craft,Canberra Art Gallery,canberra-art-gallery,-35.3252518,149.1668838,,755af99b-f2ba-478a-9915-b431b369ad7f,Canberra District,canberra-district
04b8be89-b180-4834-9988-3835ea8be655,craft,DR Print & Sign,dr-print-and-sign,-35.217208,149.1447954,,755af99b-f2ba-478a-9915-b431b369ad7f,Canberra District,canberra-district
04d444a2-16d0-4fb2-a990-d314475e1df1,field,Mount Kosciuszko Summit,mount-kosciuszko-summit,-36.4564,148.2632,Snowy Mountains,,,
04de1ec1-3823-4946-8e60-49d9b404a9a5,craft,Terra-Villa Pottery,terra-villa-pottery,-34.9307151,138.5968706,Adelaide,09c0c80f-4213-40b5-9ecd-df5f0f557f2e,Adelaide,adelaide
04e41869-010a-43fa-9917-e72641d01838,sba,Longview Vineyard,longview-vineyard,-35.190416,138.832297,Macclesfield,09c0c80f-4213-40b5-9ecd-df5f0f557f2e,Adelaide,adelaide
04e4e747-9dbc-47d4-8891-8929b12b70b6,sba,Buffalo Vale,buffalo-vale,-33.7972736,151.1392603,North Ryde,926b0253-8c9a-4734-bc1a-57156fad7006,Sydney,sydney
04f3a6e7-f06d-4bac-8106-9d46f4110767,collection,Lark Quarry Trackways Conservation Park,lark-quarry-trackways-conservation-park,-22.99215,142.410501,Winton,,,
04f80a9c-b836-4ced-8a71-4878821f2cff,craft,Isha Chatterjee Art,isha-chatterjee-art,-34.9493989,138.7176045,Adelaide,214cba3e-b81d-4a5e-85cf-c7c49634d6fc,Adelaide Hills,adelaide-hills
04ff21b4-43ca-45ff-9998-d1337a654156,craft,Worldwide Wollongong,worldwide-wollongong,-34.426439,150.895779,Southern Highlands,,,
05050ae1-1b2f-43a4-a50a-4b1e606fc20e,craft,Handcraft Studio,handcraft-studio,-27.9860289,153.4097016,,,,
0505ffcc-bff0-4bc0-a7cb-1089f0aa2bbb,rest,Cradle Mountain Lodge,cradle-mountain-lodge,-41.59502,145.927797,Cradle Country,,,
05097f4b-ecbf-428b-877f-72398f1b0e77,craft,Integral Printing,integral-printing,-35.2504177,149.0791556,,755af99b-f2ba-478a-9915-b431b369ad7f,Canberra District,canberra-district
051a0155-8a6b-4692-b212-27a21585927d,sba,De Bortoli Riverina,de-bortoli-riverina,-34.275694,146.143648,Riverina,,,
052ccea9-6bc9-4b74-9dcd-4c8f29db2366,craft,The Artisan Forest,the-artisan-forest,-28.549444,153.431605,698 Left Bank Rd,d5d8e24f-78cf-4c8a-9266-94f140f3d8c2,Byron Bay,byron-bay
0532ea14-8f75-4ffe-874b-4cc6a22bf732,craft,Curated x Daylesford,curated-x-daylesford,-37.342854,144.142726,,,,
053592ed-379e-4490-bc91-4f8847365fdd,sba,Hahndorf Hill Winery,hahndorf-hill,-35.019741,138.810738,Adelaide Hills,09c0c80f-4213-40b5-9ecd-df5f0f557f2e,Adelaide,adelaide
053f7622-5dda-4300-91df-a44649efa8af,found,Kalamunda Central Antiques and Collectables,kalamunda-central-antiques-and-collectables,-31.971836,116.058621,shop 1/10 Central Mall,6db96085-9bfe-45be-a2a9-e82b5fe66c91,Perth,perth
054650cb-3fed-4f27-8d7a-fd76ac805efb,collection,Lake Bolac Pioneer Museum,lake-bolac-pioneer-museum,-37.6952,142.892483,Grampians,,,
0548b106-bb51-4dda-b528-16e448aee63a,sba,Wineglass Bay Brewing,wineglass-bay-brewing,-42.169703,148.3039545,East Coast,,,
0552045c-266c-4469-8263-536d91ad196b,sba,Kate Hill Wines,kate-hill-wines,-43.0104534,147.066495,Huon Valley,44270aeb-3822-4d3a-913f-fd55f99f6f8c,Hobart & Southern Tasmania,hobart
05539c50-c018-48fb-b966-b5e9c2fe5815,sba,Murray Towns Brewing Co,murray-towns-brewing-co,-36.0954161,146.9029959,Gateway Island,,,
055ba698-c3c3-4afc-ab59-37ff0ad755a5,corner,Salisbury Second Hand Bookshop,salisbury-second-hand-bookshop,-27.543711,153.029097,1/17 Chrome Street Salisbury,361cd83c-0c7a-4725-b7d5-b4982ee0ec07,Brisbane,brisbane
055ecbba-b520-4e7b-bdd7-686c56241c73,sba,Obsession Wines Tumbarumba,obsession-wines-tumbarumba,-35.8626402,148.1460878,Maragle,,,
05633242-3fce-4e41-b352-40f82f22fd2b,sba,Sandalford Wines,sandalford-wines,-31.8687178,115.9927081,Swan Valley,6db96085-9bfe-45be-a2a9-e82b5fe66c91,Perth,perth
05671460-3aef-4539-a18c-69df415c5bb1,collection,PICA — Perth Institute of Contemporary Arts,pica-perth-institute-of-contemporary-arts,-31.9496,115.8587,Perth,6db96085-9bfe-45be-a2a9-e82b5fe66c91,Perth,perth
05679d35-5530-4cb3-b76a-92745f425b4b,craft,Tee Shirt Republic,tee-shirt-republic,-31.9042646,115.8126733,Perth,6db96085-9bfe-45be-a2a9-e82b5fe66c91,Perth,perth
0569872f-2c07-48be-ac4b-a95948bdf900,craft,Adelaide Leadlight Centre,adelaide-leadlight-centre,-34.9709604,138.5549168,Adelaide,09c0c80f-4213-40b5-9ecd-df5f0f557f2e,Adelaide,adelaide
056bdd49-4d28-42a7-9cb1-9f8394755073,sba,Hartzview Vineyard,hartzview-vineyard,-43.1677544,147.1578526,Huon Valley,44270aeb-3822-4d3a-913f-fd55f99f6f8c,Hobart & Southern Tasmania,hobart
057bc5d7-a5af-4cca-96cd-4139df353eea,craft,Carmen & Lucy Fine Jewellery | By Appointment,carmen-and-lucy-fine-jewellery-by-appointment,-34.9225846,138.6021119,Adelaide,09c0c80f-4213-40b5-9ecd-df5f0f557f2e,Adelaide,adelaide
057fd081-fc82-475a-a2ec-0d372ea71976,sba,Sailor Seeks Horse,sailor-seeks-horse,-43.1258779,147.0276666,Huon Valley,44270aeb-3822-4d3a-913f-fd55f99f6f8c,Hobart & Southern Tasmania,hobart
058d245e-8517-469e-ae37-8b4c465bc54b,sba,Benchwarmer,benchwarmer,-37.8053968,144.9499766,West Melbourne,80bed70c-cbb4-4ef0-b018-4f0b72de8ebb,Melbourne,melbourne
05a43b86-7eec-4f4a-8846-351089af21d0,fine_grounds,Gosford Waterfront Cafe,gosford-waterfront-cafe,-33.425,151.342,Central Coast,,,
05a7ac4d-c3c0-45c3-94f0-6080d49cb6f8,craft,Smooth Ceramics,smooth-ceramics,-32.0352003,115.7527881,,6db96085-9bfe-45be-a2a9-e82b5fe66c91,Perth,perth
05aad289-4e91-4b1c-86e4-fc91ebee09f4,sba,Cobb's Hill Estate,cobbs-hill-estate,-34.9580009,138.8128359,Oakbank,214cba3e-b81d-4a5e-85cf-c7c49634d6fc,Adelaide Hills,adelaide-hills
05b3ec3a-0aa2-4176-ae4e-db69e243483b,sba,Black Dog Brewery,black-dog-brewery,-36.3745155,146.183609,Taminick,,,
05b91c87-3d75-4649-a054-fdac865af0a6,craft,Darling Downs Potters' Club,darling-downs-potters-club,-27.563301,151.942493,,,,
05c1e82b-1ac7-41b4-919a-cf7ecfa98783,sba,Bush Shack Brewery,bush-shack-brewery,-33.4162107,115.8308723,Ferguson,,,
05c2cea5-d886-4b29-8da5-b4be6a78e892,collection,Tamworth Regional Botanic Garden,tamworth-regional-botanic-garden,-31.084842,150.924451,Tamworth,,,
05c5bedf-5fc3-43dc-8ffd-938993c74577,craft,Mt Gravatt Lapidary Society,mt-gravatt-lapidary-society,-27.554801,153.077616,,361cd83c-0c7a-4725-b7d5-b4982ee0ec07,Brisbane,brisbane
05d11f98-0643-4379-8078-1d28e2e8e656,craft,Your Print Group,your-print-group,-26.6597468,153.0420913,,,,
05d5c47c-a1c5-4bf0-8b5e-59a00906472d,found,"Relove Oxley - Vintage, Vinyl & Collectibles",relove-oxley-vintage-vinyl-collectibles,-27.553993,152.975113,"Shop 1 / 113 Oxley Station Road Oxley, Brisbane",361cd83c-0c7a-4725-b7d5-b4982ee0ec07,Brisbane,brisbane
05df0e04-b9fb-482b-b111-b3e4963cd2e8,sba,Nazaaray Estate Winery,nazaaray-estate-winery,-38.4537125,144.9547643,Flinders,80bed70c-cbb4-4ef0-b018-4f0b72de8ebb,Melbourne,melbourne
05e10889-48ef-4f19-af98-5710a1c5d196,craft,Contemporary Art Tasmania,contemporary-art-tasmania,-42.874663,147.3193367,Hobart City,22815e33-8179-4e95-aa4e-13acb289e0e9,Hobart City,hobart-city
05e21cfe-e8bd-4ae0-bc53-cc8ba2383a41,sba,Skillogalee,skillogalee,-33.9082793,138.6238103,Sevenhill,,,
05e3d2d9-80e9-4ca3-9299-2ebd3648b53e,collection,Joondalup Library Local History Collection,joondalup-library-local-history-collection,-31.743615,115.77357,Joondalup WA 6027,6db96085-9bfe-45be-a2a9-e82b5fe66c91,Perth,perth
05e56a3a-5a3c-412e-8e7d-51c6bf293c4b,rest,Shadow Creek,shadow-creek,-35.238306,138.586317,Adelaide,09c0c80f-4213-40b5-9ecd-df5f0f557f2e,Adelaide,adelaide
05e5991d-f9ab-43f1-b330-447daedb5c61,sba,Peos Estate,peos-estate,-34.234589,116.146734,Margaret River,,,
05e77da8-7660-47e2-b881-4e3110630781,craft,MKR Jewellery Design: Mornington Peninsula Jeweller,mkr-jewellery-design-mornington-peninsula-jeweller,-38.3555714,144.9053578,,80bed70c-cbb4-4ef0-b018-4f0b72de8ebb,Melbourne,melbourne
05e9cf52-5ab4-44a0-9206-5632bbce22ce,collection,Mareeba Heritage Museum and Visitor Information Centre,mareeba-heritage-museum-and-visitor-information-centre,-17.010515,145.425528,"345 Byrnes Street, Mareeba",,,
05edf146-9a82-4f98-a8df-277e5f8d8428,collection,Puffing Billy Railway Museum,puffing-billy-railway-museum,-37.921077,145.405997,Yarra Valley,80bed70c-cbb4-4ef0-b018-4f0b72de8ebb,Melbourne,melbourne
0623600e-b905-49a9-9297-c1d83f34dc04,rest,The Boutique Hotel Blue Mountains,the-boutique-hotel-blue-mountains,-33.640239,150.284789,194 Great Western Hwy,,,
0628f407-cfe7-4db5-b32f-ebb331e4b1b4,collection,Maruku Arts,maruku-arts,-25.342976,131.058029,Uluru,,,
0630b351-94a5-4210-9784-a90c6222518e,field,Daintree Rainforest Boardwalk,daintree-rainforest-boardwalk,-16.25,145.4333,Daintree,,,
0634792a-93b9-4f0a-9e0a-3eedb626a84d,sba,Blackwood Valley Distillery,blackwood-valley-distillery,-33.955182,116.148075,Bridgetown,,,
0634865f-74f9-48f9-81b2-4aa3e1b70525,collection,Museum of the Goldfields,museum-of-the-goldfields,-30.743926,121.477051,Kalgoorlie,,,
063d79d9-2dc9-4e33-b8b6-0cf2f3aad04f,sba,Good Land Brewing Co,good-land-brewing,-38.1918076,146.5637055,Brisbane,,,
06451051-3d73-4da5-9c17-284e38c8c764,craft,Irene Byrne & Co Antique Jewellery,irene-byrne-and-co-antique-jewellery,-33.7140056,150.3311838,,926b0253-8c9a-4734-bc1a-57156fad7006,Sydney,sydney
0656d20f-84e9-4037-b2ac-d17c9a0c69f6,craft,Penrith Jewellery Workshop,penrith-jewellery-workshop,-33.7513421,150.6934793,,926b0253-8c9a-4734-bc1a-57156fad7006,Sydney,sydney
067357b9-44eb-4de0-aa99-e0c93e5a5609,fine_grounds,Gorge Grounds,gorge-grounds-launceston,-41.4495,147.1235,Launceston,,,
06799da9-aad0-4c79-a577-2dead441c131,craft,Colville Gallery,colville-gallery,-42.8798863,147.3320926,Hobart City,22815e33-8179-4e95-aa4e-13acb289e0e9,Hobart City,hobart-city
067f3b75-51f9-4ce9-b635-97462a311da9,sba,Neat Spirits,neat-spirits,-35.2105289,138.5682441,McLaren Vale,09c0c80f-4213-40b5-9ecd-df5f0f557f2e,Adelaide,adelaide
0681f994-ae36-4714-b182-ac9110003466,corner,Mallalieu Lifestyle Boutique,mallalieu-lifestyle-boutique,-37.82352,145.044451,615 Burwood Rd,80bed70c-cbb4-4ef0-b018-4f0b72de8ebb,Melbourne,melbourne
06823a6d-be10-40b4-9dff-a7d4060c49ea,collection,Submarine Force Museum HMAS Ovens,submarine-force-museum-hmas-ovens,-32.052,115.744,Fremantle,6db96085-9bfe-45be-a2a9-e82b5fe66c91,Perth,perth
06b71846-31c4-4719-8f8d-3b603236dc33,collection,The Capital Theatre Bendigo,the-capital-theatre-bendigo,-36.757,144.279,Bendigo,,,
06be961a-69fc-4bab-b9ed-1792f599a2f5,sba,Mount Horrocks,mount-horrocks,-34.0250302,138.6894141,Clare Valley,,,
06d16089-72ac-4cf3-b12e-4a8575e1a4d5,craft,Wollemi Gems,wollemi-gems,-33.7135353,150.3115115,,926b0253-8c9a-4734-bc1a-57156fad7006,Sydney,sydney
06dd3afb-774a-45a0-8fc9-49f60f99802a,sba,Zerella Wines Cellar Door,zerella-wines-cellar-door,-35.192694,138.541662,McLaren Vale,09c0c80f-4213-40b5-9ecd-df5f0f557f2e,Adelaide,adelaide
06e01255-11e9-450f-ba4e-a894aab5df30,craft,Vangeli,vangeli,-35.3444849,149.0853789,,755af99b-f2ba-478a-9915-b431b369ad7f,Canberra District,canberra-district
06e1feae-1baf-4485-84b5-8231d5d2f4ea,sba,Great Ocean Road Brewing,great-ocean-road-brewing,-38.1639968,144.3660395,Great Ocean Road,,,
06eae59f-75b6-4aab-9eea-f26afc304842,field,Kangaroo Island Coastal Walk,kangaroo-island-coastal,-35.95,137.1833,Kangaroo Island,,,
06f20af1-ae39-4691-bf1f-7ddbf7f713f5,rest,Cicada Lodge,cicada-lodge,-14.337299,132.424756,Katherine,,,
0704d9e9-48f5-4ec0-8ba3-a102ae3ce366,collection,Royal Australian Mint,royal-australian-mint,-35.320874,149.094,Canberra District,755af99b-f2ba-478a-9915-b431b369ad7f,Canberra District,canberra-district
070c9f1e-ec4e-45e5-aa1d-aab54b4ae6d1,craft,The Empty Bobbin,the-empty-bobbin,-35.004466,117.865434,,,,
0712d0e4-f8ec-4935-82eb-303e710f27e8,craft,Dromana Wool & Craft,dromana-wool-and-craft,-38.3361895,144.9879689,,80bed70c-cbb4-4ef0-b018-4f0b72de8ebb,Melbourne,melbourne
071508c6-af22-4508-94df-7822ae2144b0,sba,Sake Ginza Sydney,sake-ginza-sydney,-33.8132466,151.1055589,Ryde,926b0253-8c9a-4734-bc1a-57156fad7006,Sydney,sydney
0717ab20-319a-412b-959f-5e8636c54af7,sba,Peterson House - Hunter Valley Winery,peterson-house-hunter-valley-winery,-32.7758446,151.338529,Pokolbin,dbeebdbb-4238-4a82-b4d6-00323a0f0c44,Hunter Valley,hunter-valley
07188a38-68b8-4a13-93d6-c8a0c6cf8fec,sba,Matso's Broome Brewery,matsos-broome-brewery,-17.9620513,122.2404742,Broome,,,
071d6213-8e35-449c-83f0-8d23895dd7fb,craft,caravane ceramics,caravane-ceramics,-28.5420661,153.4961127,,d5d8e24f-78cf-4c8a-9266-94f140f3d8c2,Byron Bay,byron-bay
07250411-244c-4228-b953-8beead4cacc0,sba,Bangor Vineyard Shed,bangor-vineyard-shed,-42.8986267,147.8227595,Dunalley,44270aeb-3822-4d3a-913f-fd55f99f6f8c,Hobart & Southern Tasmania,hobart
072daf66-e4e7-4d44-a7c2-a67755c1c71d,collection,Gold Coast City Gallery,gold-coast-city-gallery,-28.0004,153.4135,Gold Coast,,,
0736bf1b-4850-41a2-8443-20a3872ded0e,rest,Empire Spa Retreat,empire-spa-retreat,-33.639694,115.02619,Yallingup,,,
073d44f6-8411-418c-ad54-4c7c93e8766d,corner,Verde Store Hobart,verde-store-hobart,-42.883696,147.314654,112 Lansdowne Cres,22815e33-8179-4e95-aa4e-13acb289e0e9,Hobart City,hobart-city
0748b785-7a79-4979-bcaf-c75b85d742e3,sba,Wood Park Wines Cellar Door Milawa,wood-park-wines-cellar-door-milawa,-36.434196,146.434643,Milawa,,,
0754c64b-074e-468d-927b-2fb5fd4963f8,craft,The Elegant Stitch Quilting and Design,the-elegant-stitch-quilting-and-design,-38.3794439,146.1773431,,,,
07664d2d-ca92-4493-8f9f-02383c9137ed,found,Vintage Traders Emporium,vintage-traders-emporium,-37.064942,146.104049,10 Crosbys Ln,,,
07732597-03ed-4abc-af25-7ab3a6e51839,corner,Chapter One Books,chapter-one-books-perth,-31.933743,115.873229,Perth,6db96085-9bfe-45be-a2a9-e82b5fe66c91,Perth,perth
07762359-a51b-4cda-8fe3-377c343d208a,craft,Sip and clay,sip-and-clay,-27.4706069,153.0248769,Brisbane,361cd83c-0c7a-4725-b7d5-b4982ee0ec07,Brisbane,brisbane
078929ed-e337-49e1-9f1c-f7e05d2f0c67,collection,Bunbury Museum and Heritage Centre,bunbury-museum-and-heritage-centre,-33.3272,115.6414,Bunbury,,,
07969533-d537-4dbe-85c2-3e801813eaeb,sba,Fowles Wine,fowles-wine,-36.913349,145.224917,Strathbogie Ranges,,,
079ccae0-978c-4d23-98d8-5549964356a2,craft,Creations Plus,creations-plus,-32.0529369,115.7459889,,6db96085-9bfe-45be-a2a9-e82b5fe66c91,Perth,perth
07a59371-0fd3-486f-90ad-c8890777c632,craft,AusArtwork - Katoomba,ausartwork-katoomba,-33.7115674,150.3124128,,926b0253-8c9a-4734-bc1a-57156fad7006,Sydney,sydney
07c2740f-3b9a-4527-bd84-3972384024cf,sba,Leogate Estate,leogate-estate,-32.7630195,151.2624458,Hunter Valley,dbeebdbb-4238-4a82-b4d6-00323a0f0c44,Hunter Valley,hunter-valley
07c430eb-d1df-4724-9c07-18e9015c2ff2,craft,Gallery of small things,gallery-of-small-things,-35.2380677,149.1499537,,755af99b-f2ba-478a-9915-b431b369ad7f,Canberra District,canberra-district
07e3991a-0840-45ea-8439-e9201b0e7587,collection,Malmsbury Heritage Flour Mill,malmsbury-heritage-flour-mill,-37.1879,144.3728,Malmsbury,,,
07f0a026-1f70-45ca-ac9f-2d3502aae9c5,craft,Newcastle Spinners & Weavers Guild,newcastle-spinners-and-weavers-guild,-32.927002,151.7130511,,,,
07f5092e-e781-40d9-858a-3c28e9105e9f,sba,Kellybrook Winery,kellybrook-winery,-37.7252514,145.2789473,Wonga Park,80bed70c-cbb4-4ef0-b018-4f0b72de8ebb,Melbourne,melbourne
080138c7-420a-474b-898d-f35e365838c1,craft,Philip Smyth Visual Creations,philip-smyth-visual-creations,-37.5626359,143.8121938,,,,
081b247c-eff9-492b-8688-0c62f904e31f,craft,Bearded Dragon Gallery,bearded-dragon-gallery,-34.9233162,138.6041133,Adelaide,09c0c80f-4213-40b5-9ecd-df5f0f557f2e,Adelaide,adelaide
081f2bc1-1bfb-4f51-937d-7e08f5e163cc,craft,PrussingArt,prussingart,-31.4305433,152.8877015,,,,
082848bf-ad48-4e23-a4ba-4913201100e0,collection,Agnes Water Museum,agnes-water-museum,-24.227381,151.918875,Agnes Water,,,
08292a45-2bcc-4c9e-81a6-699cac9b3a1c,craft,Gems & Jewels,gems-and-jewels,-37.561108,143.854077,,,,
082a19c0-e516-40df-8c9c-97213cd480fb,craft,Ripples Art Shed,ripples-art-shed,-34.936816,138.570634,Adelaide,09c0c80f-4213-40b5-9ecd-df5f0f557f2e,Adelaide,adelaide
0831bb99-15e1-4777-8077-d38bc051386d,craft,Southern Buoy,southern-buoy,-38.2304974,145.066652,,80bed70c-cbb4-4ef0-b018-4f0b72de8ebb,Melbourne,melbourne
08354ee6-203a-4259-9484-4c519c2eab08,craft,Morris & Sons,morris-and-sons,-37.8155196,144.9657494,Melbourne,80bed70c-cbb4-4ef0-b018-4f0b72de8ebb,Melbourne,melbourne
0842f5ad-f7c1-4b80-9d40-d121d92129d0,rest,Bella Cosa,bella-cosa,-35.209514,138.576429,314 Kangarilla Rd,09c0c80f-4213-40b5-9ecd-df5f0f557f2e,Adelaide,adelaide
0853058e-79ab-4f7b-a7eb-d461bdca3a9d,craft,Florentine Workshop,florentine-workshop,-27.3868291,152.9364584,Brisbane,,,
085aea37-1d0f-4896-b64e-63abebf36f17,rest,Evans Hotel Bed & Breakfast Bealiba,evans-hotel-bed-breakfast-bealiba,-36.788524,143.550954,38 Main St,,,
08603edb-377e-4005-8dfa-3446ae5d5fbf,craft,Michael Hill Port Macquarie Jewellery Store,michael-hill-port-macquarie-jewellery-store,-31.4267088,152.8948784,,,,
0869c7fc-c742-46fb-9caa-dbe77384ab9f,field,Talaroo Hot Springs,talaroo-hot-springs,-18.5833,143.95,Gulf Savannah,,,
08875cd6-7215-43fa-a79b-48a37359e22a,craft,Wildwood Designs,wildwood-designs,-33.9121445,151.1637382,Sydney,926b0253-8c9a-4734-bc1a-57156fad7006,Sydney,sydney
088cefbe-4f7b-4044-b3da-0f976c3e7877,collection,Entally House,entally-house,-41.526032,146.858278,Launceston & Tamar Valley,,,
088edf55-ded1-411b-8303-b614cc37615a,craft,Glass Xpressions Gallery + Studio,glass-xpressions-gallery-studio,-27.9698787,153.3632324,,,,
08b3932d-ae81-4166-b518-0f22cf4689af,sba,Just Red Wines,just-red-wines,-28.802356,151.866335,Granite Belt,,,
08be46f2-0b0a-4807-812a-c4c0b0780627,craft,The Elm & the Raven,the-elm-and-the-raven,-43.1614253,147.0770751,,44270aeb-3822-4d3a-913f-fd55f99f6f8c,Hobart & Southern Tasmania,hobart
08dbdb6f-1156-47e5-aeec-6784885bf73c,sba,Zonzo Estate,zonzo-estate,-37.6631579,145.3997388,Yarra Valley,80bed70c-cbb4-4ef0-b018-4f0b72de8ebb,Melbourne,melbourne
08e24149-422d-4e78-a89c-5a7a2e7f0fa4,collection,Town Hall Gallery Hawthorn,town-hall-gallery-hawthorn,-37.822,145.034,Hawthorn,80bed70c-cbb4-4ef0-b018-4f0b72de8ebb,Melbourne,melbourne
08e83f49-6f2b-40c1-a902-001a3d05d891,collection,Rockhampton Botanic Gardens,rockhampton-botanic-gardens,-23.398544,150.496266,Rockhampton,,,
08eaa6c0-39f8-4af8-989c-59b39b60ff6c,craft,MAUREEN WILLIAMS GLASS STUDIO,maureen-williams-glass-studio,-37.863414,144.9857294,Melbourne,80bed70c-cbb4-4ef0-b018-4f0b72de8ebb,Melbourne,melbourne
09000d47-2339-40d9-b974-2ee463a3db9d,sba,Raidis Estate Coonawarra,raidis-estate-coonawarra,-37.3667147,140.8392992,Penola,,,
0908ab4c-21bd-4716-81fb-1ec411c2e95f,found,Raleigh Secondhand Barn,raleigh-secondhand-barn,-30.464361,153.004704,116 Old Pacific Hwy,,,
090cad3a-d043-407e-95db-439e33c35535,fine_grounds,Locale Espresso,locale-espresso,-35.002,138.719,Stirling,214cba3e-b81d-4a5e-85cf-c7c49634d6fc,Adelaide Hills,adelaide-hills
090ccf4c-d48d-46a8-b758-8875a6cac3c7,craft,Darwin Aboriginal Art Gallery,darwin-aboriginal-art-gallery,-12.4637831,130.8407122,,13ce91e7-efed-493e-9c0a-1e7fa8b90993,Darwin & Top End,darwin-top-end
0927ad88-14ef-4559-8a13-2eb60c5f1e56,sba,Little Miss Sunshine Bistro Brewery,little-miss-sunshine-bistro-brewery,-27.4684028,153.0219257,Brisbane City,361cd83c-0c7a-4725-b7d5-b4982ee0ec07,Brisbane,brisbane
0948fc61-c3e4-4178-bf73-ed07953973ad,craft,Maddie Deere Ceramics,maddie-deere-ceramics,-32.144864,133.655315,"Adelaide Hills, SA",,,
094f5c97-d7ae-4dde-9fdd-6e4f4aa12954,corner,Rocking Horse Records,rocking-horse-records,-27.458,153.034,Brisbane,361cd83c-0c7a-4725-b7d5-b4982ee0ec07,Brisbane,brisbane
095614bd-4390-4d66-bac7-2dce3b29d703,collection,Silverton Heritage Centre,silverton-heritage-centre,-31.884,141.225,Silverton,,,
0963fbc0-3bcd-4214-8242-742e09d4a696,craft,Brian Long Cabinets,brian-long-cabinets,-16.9995008,145.7417946,,,,
0973ca6d-f478-4e8a-9bd5-4e4801556f5a,sba,384 North Brewing,384-north-brewing,-24.8956853,152.3328559,Svensson Heights,,,
097d2e97-e8db-4005-b0ac-87c072f7203c,craft,The Leadlight Gallery | Geelong & Ballarat,the-leadlight-gallery-geelong-and-ballarat,-37.7766992,144.027664,,,,
0991cee3-28f8-490d-aeab-e78b13d5a90b,craft,Total Digital Image,total-digital-image,-28.004771,153.412751,,,,
0998715a-f14c-4862-bef7-4e620df2c6c3,collection,Army Museum of Western Australia,army-museum-of-western-australia,-32.045857,115.755438,Fremantle & Swan Valley,6db96085-9bfe-45be-a2a9-e82b5fe66c91,Perth,perth
099a7107-e02b-4cc6-9fdb-31e38da0ae6c,craft,Wonderground Gallery and Mirus Vineyards Barossa,wonderground-gallery-and-mirus-vineyards-barossa,-34.5095718,138.9233117,,,,
09a54e8f-7f18-455f-ba10-b0b846b8260a,craft,Freechoice Tobacconist & Giftwares,freechoice-tobacconist-and-giftwares,-27.561666,151.958439,Toowoomba & Darling Downs,,,
09b18d73-f2df-492d-895d-e0519faf1ef5,sba,Olive Hills Estate,olive-hills-estate,-36.0443544,146.574907,Rutherglen,,,
09bb2a22-6cd6-49c1-a8d8-862a529e5cbc,rest,Oldbury Cottage Berrima,oldbury-cottage-berrima,-34.493806,150.332989,7 Oldbury St,,,
09ce4ce4-b5d8-4801-8dd5-273f604f5b3d,craft,Cairns Art Society,cairns-art-society,-16.923573,145.7764688,,,,
09d99093-2864-4d32-b58d-92ea94eff49e,sba,Paramoor Winery,paramoor-winery,-37.280189,144.548603,Macedon Ranges,,,
09e090ac-b899-4a2c-bc38-9a6f4d14a363,sba,d'Arenberg,darenberg-1,-35.1972164,138.5511368,McLaren Vale,09c0c80f-4213-40b5-9ecd-df5f0f557f2e,Adelaide,adelaide
09eabeef-ccee-48bc-8470-328d37f550a3,sba,2 Wild Souls,2-wild-souls,-29.3138753,151.6995079,Torrington,,,
09f10de3-129a-4c77-9813-ebc0eeb64b82,craft,The Busy Bee Wool & Haberdashery Shoppe,the-busy-bee-wool-and-haberdashery-shoppe,-36.7381212,144.2607791,,,,
09fc5b8f-c206-4680-aa90-b2ca57bf102a,collection,Dongara Heritage Trail & Museum,dongara-heritage-trail-and-museum,-29.254,114.93,Dongara,,,
09fcdc55-f7e0-4bf9-8df4-3aaf250989d7,craft,Sarah Schembri Ceramics,sarah-schembri-ceramics,-37.8011653,144.9785168,Melbourne,80bed70c-cbb4-4ef0-b018-4f0b72de8ebb,Melbourne,melbourne
0a1ae095-3b61-443d-9107-96fb6577fb40,sba,Pagan Cider,pagan-cider,-43.132162,147.048916,Huon Valley,44270aeb-3822-4d3a-913f-fd55f99f6f8c,Hobart & Southern Tasmania,hobart
0a22e9c1-514c-439d-a839-4be18f64a621,craft,Spotlight Coffs Harbour,spotlight-coffs-harbour,-30.278038,153.122472,,,,
0a2496d4-6dfe-486d-ba0f-769857df8c21,craft,Pandora Casuarina,pandora-casuarina,-12.3751967,130.8813341,,13ce91e7-efed-493e-9c0a-1e7fa8b90993,Darwin & Top End,darwin-top-end
0a2f7fc1-c5e9-4d94-be3c-733ab6b859e7,rest,Lune de Sang,lune-de-sang,-28.821641,153.418599,Northern Rivers,,,
0a313c45-07a4-46cd-a4d1-47af10c50093,rest,Donalea Bed & Breakfast,donalea-bed-breakfast,-43.140454,146.96926,9 Crowthers Rd,44270aeb-3822-4d3a-913f-fd55f99f6f8c,Hobart & Southern Tasmania,hobart
0a3bf2d6-a6fe-4f3e-a1b4-0e71a7a701ea,sba,Hayes Family Wines,hayes-family-wines,-34.4980474,138.9518755,Barossa Valley,,,
0a44057b-878b-4d9c-ac03-378e93372912,collection,Orange Civic Theatre & Gallery,orange-civic-theatre-and-gallery,-33.284,149.1004,Orange,ada12443-7cd7-432d-9bb5-37a735e47cfc,Orange,orange
0a442d27-6c09-4904-ae2d-d9c6c73cf29e,sba,Gibson Wines,gibson-wines,-34.4571297,139.0334553,Barossa Valley,,,
0a4afc35-9fac-47fd-aae7-3b7a79c9aecf,sba,Malcolm Creek Vineyard & Cellar Door,malcolm-creek-vineyard-and-cellar-door,-34.761658,138.875148,Kersbrook,214cba3e-b81d-4a5e-85cf-c7c49634d6fc,Adelaide Hills,adelaide-hills
0a509ff7-a2a4-4a77-a0b6-6245fff22a78,collection,Gulf Station Yarra Glen,gulf-station-yarra-glen,-37.649017,145.386518,Yarra Glen,80bed70c-cbb4-4ef0-b018-4f0b72de8ebb,Melbourne,melbourne
0a54f997-8d15-40ef-99a2-1c07075fe9da,rest,Silky Oaks Lodge,silky-oaks-lodge,-16.460157,145.354794,Cairns & Tropical North,,,
0a5635c2-537a-46ca-9928-7d89d00b978a,craft,Michael Hill Grand Central Jewellery Store,michael-hill-grand-central-jewellery-store,-27.5612348,151.9489057,,,,
0a5cb0ca-b536-41a4-9c6a-ac84d6efd3dd,sba,Sunshine Coast Cider,sunshine-coast-cider,-26.6619972,153.0417202,Kunda Park,,,
0a5f1e44-1c84-4d4c-a065-a124529b1386,craft,Peninsula Merch & Signs,peninsula-merch-and-signs,-38.4590837,144.9070371,,80bed70c-cbb4-4ef0-b018-4f0b72de8ebb,Melbourne,melbourne
0a76b40d-4002-4984-8d70-e11951a0beea,craft,Wood Dining Tables Sydney - Growready,wood-dining-tables-sydney-growready,-33.7827656,151.2734855,Sydney,926b0253-8c9a-4734-bc1a-57156fad7006,Sydney,sydney
0a7f9080-5a3b-4c1b-acbb-4d5a00f8eafe,craft,Bushy Art Gallery,bushy-art-gallery,-33.8969375,115.0871875,,,,
0a8258df-e945-4630-8e98-8c0f536b5d88,field,Barron Falls Lookout,barron-falls-lookout,-16.85,145.6417,Cairns & Surrounds,,,
0a8cc63d-d234-422d-8696-85dbd24ce6c0,sba,Pechey Distilling Co,pechey-distilling-co,-27.2979478,152.0583846,Crows Nest,,,
0a91f7bf-9889-4d3c-b2e9-6d1a4b7eb3c2,sba,Edwards Wines,edwards-wines,-33.894616,115.035999,Margaret River,,,
0a964161-0537-4d19-b4bb-430969f98b88,sba,Brookland Valley Estate,brookland-valley,-33.7535819,115.1500083,Margaret River,,,
0aa26f96-9970-4b47-93e9-305dcbeb33d3,sba,Forester Estate Winery - No cellar door,forester-estate-winery-no-cellar-door,-33.693102,115.089294,Margaret River,,,
0aa51960-efcf-4077-bb6c-6a91ad6dc553,table,The Bakery,the-bakery,-23.700923,133.882216,4/11 Todd St,,,
0aafc7d2-3afe-4bf5-b1df-7cab0b8fc159,sba,Old Young's Distillery,old-youngs-distillery,-31.8063373,115.9999074,Henley Brook,6db96085-9bfe-45be-a2a9-e82b5fe66c91,Perth,perth
0ab2ee3a-5ff5-4f73-9df7-a3c6a019068d,craft,Potter's Oasis,potters-oasis,-35.5576228,138.618036,,,,
0acb6e53-455e-4fc8-a52b-20df8999c20a,sba,Napoleone Cider,napoleone-cider,-37.6912533,145.4080695,Yarra Valley,80bed70c-cbb4-4ef0-b018-4f0b72de8ebb,Melbourne,melbourne
0acbd1db-309a-4260-865f-28364acb693c,sba,Sumpoynt Distillery,sumpoynt-distillery,-34.8453169,138.6826207,Holden Hill,09c0c80f-4213-40b5-9ecd-df5f0f557f2e,Adelaide,adelaide
0ad2562b-a666-4ffa-ae9e-7768fabfe026,field,Drew Lookout,drew-lookout,-25.05,148.2167,Central Queensland,,,
0ad34e36-5d67-4273-baa1-994cfedaebbf,sba,Hickson Road Distilling,hickson-road-distilling,-33.86,151.21,Sydney,926b0253-8c9a-4734-bc1a-57156fad7006,Sydney,sydney
0adae078-75b2-443d-a062-9f43ef3129bf,sba,Jones & Smith Distillery,jones-and-smith-distillery,-33.3464786,149.1618074,Lucknow,ada12443-7cd7-432d-9bb5-37a735e47cfc,Orange,orange
0ae18df7-1c21-4ac5-8812-fc9c128b225c,craft,Handspinners and Weavers Guild of S.A.,handspinners-and-weavers-guild-of-s-a,-34.9258097,138.5695031,Adelaide,09c0c80f-4213-40b5-9ecd-df5f0f557f2e,Adelaide,adelaide
0af50e2b-1dfb-4749-b231-9fc67aba112e,craft,To Hold & To Have,to-hold-and-to-have,-26.6827366,153.0656442,,,,
0b0660dc-eac3-4f87-ba4a-65fd590d4c21,collection,Cascade Female Factory,cascade-female-factory,-42.893798,147.299296,Hobart City,22815e33-8179-4e95-aa4e-13acb289e0e9,Hobart City,hobart-city
0b091c01-c3c6-46bd-a939-f726477091c8,craft,The Farm Margaret River,the-farm-margaret-river,-33.9055404,115.0558166,,,,
0b0b0892-3e08-4340-849d-9496b0e24427,sba,Anther Geelong Distillery,anther-geelong-distillery,-38.1133105,144.3565871,North Geelong,,,
0b188ee4-b19d-4f57-9249-b0f2665d11b9,craft,Melissa Baldock Silversmith,melissa-baldock-silversmith-tas,-42.9815862,147.3228734,,44270aeb-3822-4d3a-913f-fd55f99f6f8c,Hobart & Southern Tasmania,hobart
0b18cece-24c6-4f07-8fe7-81c73168fcf7,craft,Weaving Solutions,weaving-solutions,-27.4673879,153.0303199,Brisbane,361cd83c-0c7a-4725-b7d5-b4982ee0ec07,Brisbane,brisbane
0b1ab04c-c45a-47d5-bcfa-b471121252c0,craft,Blackwood Collective,blackwood-collective,-26.7920453,153.1300625,,,,
0b1e0dae-d327-4f62-8b6b-020c40c70b8a,collection,White Rabbit Gallery,white-rabbit-gallery,-33.8884,151.1997,Chippendale,926b0253-8c9a-4734-bc1a-57156fad7006,Sydney,sydney
0b20174b-f71d-49b9-a976-630a19525dde,craft,Madgia Designs Furniture,madgia-designs-furniture-vic,-37.534206,143.9208093,,,,
0b22ae42-8e0c-4ff1-a7d9-fb17e4c72c82,collection,Kakadu Cultural Centre,kakadu-cultural-centre,-12.6586,132.8886,Jabiru,13ce91e7-efed-493e-9c0a-1e7fa8b90993,Darwin & Top End,darwin-top-end
0b24dafa-4197-4f61-8b71-6ea3e006bce5,craft,Illume Creations,illume-creations,-26.6880249,152.8923228,,,,
0b380de0-eb92-43fb-8da4-7af721f48ecf,sba,Renzaglia Wines (open by appointment only),renzaglia-wines-open-by-appointment-only,-33.5384109,149.6880863,O'Connell,,,
0b40512f-c009-43af-93aa-01b7c19e9a84,collection,Wollongong Art Gallery,wollongong-art-gallery,-34.4252,150.8939,Wollongong,,,
0b40e080-1ec3-4502-8f06-af94f9808fad,corner,The Inkwell,the-inkwell-glebe,-33.881782,151.189686,Sydney,926b0253-8c9a-4734-bc1a-57156fad7006,Sydney,sydney
0b4d94ef-3958-46f2-b766-47c85959a0ae,corner,Providore 24,providore-24,-40.760095,145.29639,24 Church St,,,
0b5239a5-6be1-4450-866f-d66d2f6b608f,sba,Jack Rabbit Vineyard,jack-rabbit-vineyard,-38.1379965,144.5918927,Bellarine Peninsula,,,
0b612920-0258-4394-bba8-00e983667a9a,rest,"Broke Estate - Glamping, Accommodation and Wine",broke-estate-glamping-accommodation-and-wine,-32.732789,151.094188,1260 Broke Rd,dbeebdbb-4238-4a82-b4d6-00323a0f0c44,Hunter Valley,hunter-valley
0b7c7c2a-8793-4961-b8a7-76c1ea70a696,craft,Street Art,street-art,-12.4634521,130.8432442,,13ce91e7-efed-493e-9c0a-1e7fa8b90993,Darwin & Top End,darwin-top-end
0b945ab0-8b44-42c5-99e0-1db99c144e3f,sba,The Generous Squire,the-generous-squire,-31.9514469,115.8538786,Perth,6db96085-9bfe-45be-a2a9-e82b5fe66c91,Perth,perth
0b98a0f4-863b-4815-9e8c-91c27e2abe2a,corner,Dinosaur Designs,dinosaur-designs-surry-hills,-33.884,151.212,Sydney,926b0253-8c9a-4734-bc1a-57156fad7006,Sydney,sydney
0b9d066f-0092-475d-99cb-81ec720c4b5a,craft,Bad News Gallery,bad-news-gallery,-34.4255273,150.8869137,,,,
0bc497ed-ed21-4e1c-9877-735ece654cbf,craft,Deep Earth Ceramics,deep-earth-ceramics-wa,-32.0554709,115.7638605,,6db96085-9bfe-45be-a2a9-e82b5fe66c91,Perth,perth
0bc83e22-0b3f-4885-bf1e-7e2424799504,sba,Maggie Island Brewery,maggie-island-brewery,-19.161151,146.849254,Picnic Bay,,,
0bce4e06-1647-4e51-82e1-41507e9ae7c8,field,Best of All Lookout,best-of-all-lookout-springbrook,-28.2333,153.2667,Springbrook,,,
0bd5183f-90ff-4866-bdaa-bd23de80451c,sba,The Overflow Estate 1895,the-overflow-estate-1895,-27.948812,152.878025,Scenic Rim,,,
0bd5b95b-aeea-4b0a-b911-230ea403684f,collection,Jenolan Caves Visitor Centre,jenolan-caves-visitor-centre,-33.819,150.022,Jenolan Caves,,,
0be0b835-5e74-4a55-a99a-f1e4562e3c0d,craft,NorthSite Art Studios,northsite-art-studios,-16.9040641,145.748645,,,,
0be803c9-f05d-450d-92a5-0585868bd432,field,The Pinnacle,the-pinnacle-canberra,-35.25,149.04,Canberra,755af99b-f2ba-478a-9915-b431b369ad7f,Canberra District,canberra-district
0bf63457-0da8-4682-a327-6bccb2e3c234,sba,Saltire Estate,saltire-estate,-32.7457482,151.3810054,Lovedale,dbeebdbb-4238-4a82-b4d6-00323a0f0c44,Hunter Valley,hunter-valley
0bf6f968-f430-4617-8126-dada1bed3812,craft,HOTA Gallery,hota-gallery,-28.0022881,153.4167133,,,,
0c1291f5-3fd3-4e92-9716-79a8be75d873,craft,Birch Restorations,birch-restorations,-31.5724961,152.8117303,,,,
0c18c616-08d8-407b-9d5a-dca020f1afba,craft,Wild Island Tasmania,wild-island-tasmania,-42.8869422,147.3316055,Hobart City,22815e33-8179-4e95-aa4e-13acb289e0e9,Hobart City,hobart-city
0c1fc923-e196-4a75-98ad-d8214bcefcfa,sba,Swan River Distillery,swan-river-distillery,-31.9696996,115.8902054,Victoria Park,6db96085-9bfe-45be-a2a9-e82b5fe66c91,Perth,perth
0c24a03c-039f-4e5d-9a6e-db6364b57253,sba,Colonial Brewing Co Margaret River,colonial-brewing-mr,-33.9428791,115.0747748,Margaret River,,,
0c2b378f-81c0-4680-afe6-9cab42989f1c,collection,Grafton Art Gallery,grafton-art-gallery,-29.6878,152.9326,Grafton,,,
0c3761f7-55a9-46a8-9a67-7ed70c9315da,collection,Clarendon Homestead,clarendon-homestead,-41.628405,147.295785,Launceston & Tamar Valley,,,
0c38a0ff-0c2f-45c7-8196-3f264027811b,collection,Hugh Williamson Ayers Rock Art Gallery,hugh-williamson-ayers-rock-art-gallery,-33.0353,137.58655,Clare Valley,,,
0c524a3a-5fb3-4a4d-99f1-581e6e8d0bfe,sba,Red Mill Rum,red-mill-rum,-33.8649875,151.1769277,Rozelle,926b0253-8c9a-4734-bc1a-57156fad7006,Sydney,sydney
0c5b9fe6-4727-49be-bd8c-2c5fc547a5c4,craft,Screen Printing Australia,screen-printing-australia,-32.4240108,115.7550927,,6db96085-9bfe-45be-a2a9-e82b5fe66c91,Perth,perth
0c5bc678-0544-4d69-a220-98d8e0a87464,collection,Nyinkka Nyunyu Art and Culture Centre,nyinkka-nyunyu-art-and-culture-centre,-19.642735,134.191596,Tennant Creek,,,
0c5fea12-629b-40b7-a36c-e29e3b066639,craft,Venezia jewellery store,venezia-jewellery-store,-12.4644514,130.8416761,,13ce91e7-efed-493e-9c0a-1e7fa8b90993,Darwin & Top End,darwin-top-end
0c661a0d-343e-4939-af09-e82de51a24d3,craft,Furniture Design Studio,furniture-design-studio,-31.8588823,115.80581,,6db96085-9bfe-45be-a2a9-e82b5fe66c91,Perth,perth
0c769571-c809-410d-a97f-01103740b93f,craft,The ReDress Hub,the-redress-hub,-41.4375272,147.1405386,,,,
0c7739f2-439e-461c-be0f-5d18eaff4ce9,sba,Kies Family Wines - Cellar Door Barossa Valley,kies-family-wines-cellar-door-barossa-valley,-34.594506,138.8827305,Lyndoch,,,
0c7ce3f3-ac7f-4ccd-ae01-99932262aa9b,collection,Forbes Art Gallery,forbes-art-gallery,-33.3844,148.0075,Forbes,,,
0ca924c0-6acc-4f65-bfb1-1400ce4e97ea,collection,Latrobe Regional Gallery,latrobe-regional-gallery,-38.236775,146.394296,Gippsland,,,
0cc8254f-0753-4b16-8b95-c6db9337b86c,sba,One Drop Brewing Co,one-drop-brewing-co,-33.9453954,151.1929678,Botany,926b0253-8c9a-4734-bc1a-57156fad7006,Sydney,sydney
0ccb9464-8790-4ad2-ab68-3e82a14e5943,craft,Lynns Glass Studio,lynns-glass-studio,-31.8584554,116.1724658,,6db96085-9bfe-45be-a2a9-e82b5fe66c91,Perth,perth
0ccbfecc-b0a0-4a66-8752-e078cba469a5,sba,Bleasdale Vineyards,bleasdale-vineyards,-35.3066466,139.0469124,Langhorne Creek,,,
0ce77558-1117-4130-a877-ccf948ab52c0,craft,Fearon,fearon,-28.6339222,153.5832391,,d5d8e24f-78cf-4c8a-9266-94f140f3d8c2,Byron Bay,byron-bay
0ce8b3e9-6ab3-463c-92cb-641b5a2aeb14,craft,The Wood Lab Au,the-wood-lab-au,-28.6354553,153.5790543,,d5d8e24f-78cf-4c8a-9266-94f140f3d8c2,Byron Bay,byron-bay
0ceec681-57a1-4e0e-8246-406f70aab7f8,craft,OCEAN ART NAOMI,ocean-art-naomi,-26.6616301,153.1029013,,,,
0cefcc61-9307-4d89-affd-6d1df3559844,craft,Lake House Clay and Art Studio,lake-house-clay-and-art-studio,-33.0359549,151.6116457,,,,
0d0c4907-c516-4713-97dc-a2b4fd1fbbd1,craft,Botanical Lane,botanical-lane,-36.7546887,144.28871,,,,
0d0ccce5-e944-42a7-889d-18a3a5f78786,craft,THREAD SHED UPHOLSTERY,thread-shed-upholstery,-41.5555011,147.1694826,,,,
0d1fc0f9-abe4-4cfb-9d6b-0c1d8e88aaad,craft,Heath Lyons Manufacturing Jewellers,heath-lyons-manufacturing-jewellers,-36.7190897,144.253959,,,,
0d213748-032a-4fae-afb6-6de32e52b7aa,sba,The Bellingen Brewery & Co.,the-bellingen-brewery-and-co,-30.4513883,152.8967551,Bellingen,,,
0d228901-791b-4673-8872-530042f3859e,collection,Bendigo Pottery,bendigo-pottery,-36.707665,144.315929,Central Victoria,,,
0d55ecf7-2fe3-4d6a-a0ab-cae8abc870c0,sba,Lowe Wines,lowe-wines,-32.547462,149.588063,Orange & Central West,7537a040-b426-4e3c-8d27-de9c8315810c,Mudgee,mudgee
0d68b410-1320-43be-82f4-5951003945f4,sba,Brouhaha Baringa,brouhaha-baringa,-26.808392,153.0683413,Baringa,,,
0d6a4c1c-9eda-4de4-b7ab-37b4e8f5d30a,sba,GinFinity,ginfinity,-37.901229,145.3572331,Belgrave,80bed70c-cbb4-4ef0-b018-4f0b72de8ebb,Melbourne,melbourne
0d8a42e6-29be-40f4-9456-16a68f899e7e,fine_grounds,ONA Coffee House,ona-coffee-house,-35.2734,149.135,Braddon,755af99b-f2ba-478a-9915-b431b369ad7f,Canberra District,canberra-district
0d94282f-0eaa-47f4-9d7a-8a0c19dce8ad,sba,Mates Gin Distillery,mates-gin-distillery,-38.605487,145.603537,Wonthaggi,,,
0d9c472c-8ea9-401c-9ef7-af95b02dab9e,collection,Brambuk – The National Park and Cultural Centre,brambuk-the-national-park-and-cultural-centre-vic,-37.15795,142.529783,Grampians,,,
0da148d3-8bfc-4107-9b02-65c3d54815a8,craft,CLAY,clay,-26.3979459,153.0909542,,,,
0da34259-4c4e-4447-acc1-384d1bc15fd6,craft,Madeline Gordon Gallery,madeline-gordon-gallery,-41.4352582,147.1399648,,,,
0da3ff0f-c412-43f0-9bdc-cd1aadf5f3be,craft,Christine Isaacs Glass Artist,christine-isaacs-glass-artist,-12.428448,130.866034,,13ce91e7-efed-493e-9c0a-1e7fa8b90993,Darwin & Top End,darwin-top-end
0daacb22-f386-48d2-a8b3-5c6b10b54ac9,sba,Eight at the Gate Wines,eight-at-the-gate-wines,-37.3017502,140.8390741,Coonawarra,,,
0db17e7d-dcb4-450a-82f5-8b36030c95f3,collection,Bunbury Museum & Heritage Centre,bunbury-museum-and-heritage-centre-wa,-33.327,115.641,Bunbury,,,
0db73fdd-260f-4bf7-9032-b3ceb2ff8b98,craft,The Fabric Printer,the-fabric-printer,-31.9043391,115.8128377,Perth,6db96085-9bfe-45be-a2a9-e82b5fe66c91,Perth,perth
0dd96d2d-0a0e-4fab-86f8-09202fce6627,craft,Albert Tse Metalsmith,albert-tse-metalsmith,-33.8726662,151.2085139,Sydney,926b0253-8c9a-4734-bc1a-57156fad7006,Sydney,sydney
0dddda6a-fa58-4ec9-be34-41df80b81e69,craft,Coffs Coast Screen Printing,coffs-coast-screen-printing,-30.3153825,153.0862744,,,,
0de5c2cd-1812-4e71-a4cb-86995dfa7f9e,sba,Beaver Brewery,beaver-brewery,-12.3997094,130.8545911,Darwin,13ce91e7-efed-493e-9c0a-1e7fa8b90993,Darwin & Top End,darwin-top-end
0dec21fe-afb4-4676-adbd-16eb65f2d427,sba,Thicker Than Water Wines (Producers of Squid Ink Shiraz),thicker-than-water-wines-producers-of-squid-ink-shiraz,-35.229415,138.5595696,McLaren Vale,09c0c80f-4213-40b5-9ecd-df5f0f557f2e,Adelaide,adelaide
0dfd2de7-483b-4f68-b90d-6ab559a450b9,craft,AAD Art Gallery - Australian Art & Design,aad-art-gallery-australian-art-and-design,-33.8584618,151.2092964,Sydney,926b0253-8c9a-4734-bc1a-57156fad7006,Sydney,sydney
0e08d293-28d3-4175-b4bc-949a287b790e,rest,Heal House,heal-house,-27.46239,153.04262,72 Heal St,361cd83c-0c7a-4725-b7d5-b4982ee0ec07,Brisbane,brisbane
0e2e425b-49ef-4728-9572-8317fc5ff6c6,sba,Flowstate Brewers & Distillers,flowstate-brewers-and-distillers,-38.3105562,144.3169436,Torquay,,,
0e3c3e73-414d-481a-b5b0-564beba3b0d9,rest,Terminus Hotel Pyrmont,terminus-hotel-pyrmont,-33.86783,151.192621,"61 Harris Street, Pyrmont",926b0253-8c9a-4734-bc1a-57156fad7006,Sydney,sydney
0e3feec0-fcab-4dbd-b658-6625fa407efc,sba,FUTURE BREWING,future-brewing,-33.9097416,151.1779738,Saint Peters,926b0253-8c9a-4734-bc1a-57156fad7006,Sydney,sydney
0e40f7fa-f69d-4167-9c8d-29b617905e49,sba,Rosnay Cellar Door,rosnay-cellar-door,-33.605399,148.605077,Orange & Central West,,,
0e422900-eb91-4d30-a2a0-7db9af59af13,sba,Pfeiffer Wines,pfeiffer-wines,-36.0370123,146.3957963,Rutherglen,,,
0e5701fa-e7ca-4744-aaee-22a7dc41942f,sba,Mismatch Brewing Hills,mismatch-hills,-34.931714,138.5938151,Adelaide Hills,09c0c80f-4213-40b5-9ecd-df5f0f557f2e,Adelaide,adelaide
0e579930-561a-4040-8127-cc995c64013f,sba,Boatrocker Brewers & Distillers,boatrocker-brewers-and-distillers,-38.0030937,145.1129705,Braeside,80bed70c-cbb4-4ef0-b018-4f0b72de8ebb,Melbourne,melbourne
0e58904f-b22c-416a-a638-6f1177be48d4,sba,Bettenays Margaret River Wine & Nougat,bettenays-margaret-river-wine-and-nougat,-33.8188945,115.0624021,Cowaramup,,,
0e5f2666-8d7d-4d0e-9f69-d7cb7d8a7c91,rest,Losari Retreat,losari-retreat,-33.917477,115.134303,"498 Osmington Road, Margaret River",,,
0e5f4e6f-a6b7-490e-92d3-abf0c4d9dade,craft,Sunshine Print Artspace,sunshine-print-artspace,-37.7986746,144.8341346,,80bed70c-cbb4-4ef0-b018-4f0b72de8ebb,Melbourne,melbourne
0e5fe419-b7cc-4471-acb4-6e10825ac736,collection,TarraWarra Museum of Art,tarrawarra-museum-of-art,-37.659633,145.469187,Yarra Valley,80bed70c-cbb4-4ef0-b018-4f0b72de8ebb,Melbourne,melbourne
0e73d097-5dbd-4057-9641-745a9060b726,craft,"The Barn, MR",the-barn-mr,-33.9982256,115.1920886,,,,
0e76560e-115a-43c7-a5d9-21ad30da08fe,craft,Lupy Lane,lupy-lane,-32.9129647,151.714808,,,,
0e970581-f82f-4573-a52c-712f4ba45c18,rest,Glasshouse Mountains Ecolodge,glasshouse-mountains-ecolodge,-26.921236,152.940303,"198 Barrs Road, Glass House Mountains",,,
0e9f409a-ecee-4fbe-b9ef-352ec0e72c71,collection,Perc Tucker Regional Gallery,perc-tucker-regional-gallery,-19.262587,146.814549,Townsville,,,
0ea5b269-0a9d-4c10-829a-0a7ff2bac73f,craft,Ellis House Art Centre,ellis-house-art-centre,-31.929597,115.91743,Perth,6db96085-9bfe-45be-a2a9-e82b5fe66c91,Perth,perth
0eb4042c-008b-4b2d-be86-1ff8d103441d,craft,Unearthed Ceramics,unearthed-ceramics,-37.7391519,145.0089294,Melbourne,80bed70c-cbb4-4ef0-b018-4f0b72de8ebb,Melbourne,melbourne
0eb62430-f220-45b2-93ee-c99632a2f1c9,craft,Legacy Stained Glass,legacy-stained-glass,-33.7228721,150.3287774,,926b0253-8c9a-4734-bc1a-57156fad7006,Sydney,sydney
0ec2c144-056f-42ac-bb10-af1a3fd80acd,collection,Leongatha Historical Museum,leongatha-historical-museum,-38.466378,145.95836,Leongatha,,,
0ec2da69-20f1-4493-a7db-814a68fa4418,fine_grounds,Glass House Espresso,glass-house-espresso,-26.892,152.936,Sunshine Coast,,,
0ec8bfca-7643-4149-a34c-87f346f62153,sba,Clare Valley Distillery,clare-valley-distillery,-33.8610643,138.6231335,Clare,,,
0f00d9f0-4b07-4a7d-afa7-20417ce34d5a,sba,Mewstone Wines,mewstone-wines,-43.199296,147.253558,Flowerpot,44270aeb-3822-4d3a-913f-fd55f99f6f8c,Hobart & Southern Tasmania,hobart
0f09ea48-2343-4382-a495-8ac5f94c7720,craft,Byron Bay Contemporary Artspace,byron-bay-contemporary-artspace,-28.649959,153.615354,,d5d8e24f-78cf-4c8a-9266-94f140f3d8c2,Byron Bay,byron-bay
0f246153-56c9-461a-bea2-923b3d1de31b,sba,Narkoojee Winery and Restaurant,narkoojee-winery-and-restaurant,-38.1190676,146.5397891,Glengarry North,,,
0f2b2c13-77bc-4c47-b39c-d33d36be0a00,sba,TarraWarra Estate,tarrawarra-estate,-37.6595109,145.469204,Yarra Valley,80bed70c-cbb4-4ef0-b018-4f0b72de8ebb,Melbourne,melbourne
0f30d6d0-11b4-4767-b466-54b1a5e50005,sba,Basket Range Wine,basket-range-wine,-34.9282774,138.7788828,Adelaide Hills,214cba3e-b81d-4a5e-85cf-c7c49634d6fc,Adelaide Hills,adelaide-hills
0f3ca5f8-c751-49ee-af2c-c1627bb7d724,sba,Winburndale Vineyard & Winery,winburndale-vineyard-and-winery,-33.3933363,149.7209309,Glanmire,,,
0f44c91e-3974-4dc9-9fe0-0d0d64b2103d,craft,Snap Print Solutions Northbridge,snap-print-solutions-northbridge,-31.9452774,115.8661107,Perth,6db96085-9bfe-45be-a2a9-e82b5fe66c91,Perth,perth
0f5e707e-fd90-451d-baaf-0d1b70f22941,craft,Healesville Jewellers,healesville-jewellers,-37.6541098,145.5151542,,80bed70c-cbb4-4ef0-b018-4f0b72de8ebb,Melbourne,melbourne
0f6d1fc9-3c33-42c3-b5c1-f3607076ca71,sba,Hamelin Bay Wines,hamelin-bay,-34.1736259,115.1211995,Margaret River,,,
0f7557f2-3dfa-4192-b4d9-e88a9d83a31a,sba,Dunalley Bay Distillery - Eat and Drinks,dunalley-bay-distillery-eat-and-drinks,-42.8928265,147.8024673,Dunalley,44270aeb-3822-4d3a-913f-fd55f99f6f8c,Hobart & Southern Tasmania,hobart
0f77c44f-5142-4476-bdf3-4fa2fe4080c9,craft,Rare Earth Studio Gallery,rare-earth-studio-gallery,-38.6644023,146.3239801,,,,
0f833a7b-bbf7-4d79-a73a-a18d9068c631,table,Erda,erda,-42.881557,147.320922,167A Harrington Street Hobart Tasmania,22815e33-8179-4e95-aa4e-13acb289e0e9,Hobart City,hobart-city
0f879587-bdc7-47e1-961b-be31d1b85054,craft,Print Paint Pot - Pottery Class Sydney,print-paint-pot-pottery-class-sydney,-33.8160964,151.1831177,Sydney,926b0253-8c9a-4734-bc1a-57156fad7006,Sydney,sydney
0f8d9509-92e4-4c87-ac78-9a1a6dc5a15b,craft,Western Port Woodworks,western-port-woodworks,-38.287932,145.186815,,80bed70c-cbb4-4ef0-b018-4f0b72de8ebb,Melbourne,melbourne
0fd3ed8b-c3e2-4e4c-838a-b6d78117a479,craft,Eclipse Handcrafted Furniture,eclipse-handcrafted-furniture,-33.9107063,151.1949907,Sydney,926b0253-8c9a-4734-bc1a-57156fad7006,Sydney,sydney
0fd8fa20-3383-4598-a0fd-4e68d287fd01,sba,Sunny Days Distillery,sunny-days-distillery,-28.1070722,153.4223345,Burleigh Heads,,,
0fdf9a32-ff5d-4ac2-8580-f631ca283778,sba,Helen & Joey Estate,helen-joey-estate,-37.6970926,145.4306277,Yarra Valley,80bed70c-cbb4-4ef0-b018-4f0b72de8ebb,Melbourne,melbourne
0ff0acf3-a812-40ec-afff-d2ccc5e4e372,craft,Clayful Pottery Studio,clayful-pottery-studio,-36.7956655,144.2444675,,,,
10038038-4a48-462f-83c3-d82831fdd3d3,craft,Gallery Cosmosis,gallery-cosmosis,-28.6357911,153.5809612,,d5d8e24f-78cf-4c8a-9266-94f140f3d8c2,Byron Bay,byron-bay
1004821e-499d-4522-82a4-f29f162d7a28,rest,Broken River Mountain Resort,broken-river-mountain-resort,-21.159381,148.500873,Eungella Dam Rd,,,
1005994f-8ec5-400b-ac20-97065b378a95,sba,Majella Wines,majella-wines,-37.3230879,140.8506327,Coonawarra,,,
1009a352-bc20-4a29-b0dd-e3920e3e7a24,sba,Brightstar Brewing,brightstar-brewing,-34.910719,138.5715285,Thebarton,09c0c80f-4213-40b5-9ecd-df5f0f557f2e,Adelaide,adelaide
102208ba-1f47-4a9d-ba10-aed8c30110d6,found,Masonic Charity Outlet,masonic-charity-outlet,-31.927761,115.878915,772 Beaufort St,6db96085-9bfe-45be-a2a9-e82b5fe66c91,Perth,perth
1038b011-0810-4a24-8785-af13fa2f6768,table,The Balfour Kitchen & Bar,the-balfour-kitchen-bar,-27.463809,153.040346,37 Balfour St,361cd83c-0c7a-4725-b7d5-b4982ee0ec07,Brisbane,brisbane
1049c8b6-f1b0-4d22-9f44-35b8c575293f,rest,Ukiyo House,ukiyo-house,-35.260916,138.46638,"37 Martin St, Port Willunga, South Australia",09c0c80f-4213-40b5-9ecd-df5f0f557f2e,Adelaide,adelaide
10703eb0-7d49-48fb-8dd3-fd60d051bf79,corner,Jardan,jardan-south-yarra,-37.84219,145.016874,Melbourne,80bed70c-cbb4-4ef0-b018-4f0b72de8ebb,Melbourne,melbourne
10785e9b-9c56-4178-8306-ae3855fbf52e,craft,Little Shed custom furniture and joinery,little-shed-custom-furniture-and-joinery,-42.8470865,147.4245579,,44270aeb-3822-4d3a-913f-fd55f99f6f8c,Hobart & Southern Tasmania,hobart
10788f20-e1dc-4beb-b7ed-7c1baa1aed56,sba,Cardiff Brewery,cardiff-brewery,-32.9432073,151.6544442,Cardiff,,,
1082fd72-a1b3-4ac2-acf0-6af0f353d3ca,craft,The Yarn Bowl,the-yarn-bowl,-27.3758266,153.0760839,,361cd83c-0c7a-4725-b7d5-b4982ee0ec07,Brisbane,brisbane
1083c94d-1762-4cb3-b015-0549266130ae,sba,Two Lads Brewing,two-lads-brewing,-36.078726,144.748964,Central Victoria,,,
108449a2-2fa4-4bfb-af5a-64794d3622e7,rest,Cicada Luxury Camping,cicada-luxury-camping,-34.670063,150.821196,127 Jerrara Rd,,,
10849c9b-a840-4b0c-83ca-520d081fffc7,sba,Pyramids Road Wines,pyramids-road-wines,-28.853601,151.876931,Granite Belt,,,
108547bd-d913-497b-bc79-6a6c696f3167,field,Ebor Falls,ebor-falls,-30.4,152.35,New England,,,
1090f662-3afd-435b-9608-231fcb104f86,sba,Australian Distilling Co.,australian-distilling-co,-34.9145252,138.6272317,Stepney,09c0c80f-4213-40b5-9ecd-df5f0f557f2e,Adelaide,adelaide
10a70e4f-48cf-4a81-8f2b-7292c38d003c,collection,Torquay Surf World Museum,torquay-surf-world-museum,-38.326,144.318,Torquay,,,
10b1da08-02a4-442a-9a4f-272c5f5cb023,collection,Yarram Courthouse Gallery,yarram-courthouse-gallery,-38.560821,146.676214,Gippsland,,,
10bf4f4f-937c-4ee1-9d62-6a7bc28e12ca,sba,Pacific Ocean Brewery,pacific-ocean-brewery,-32.1671574,152.4937667,Tuncurry,,,
10c3ffb0-a16c-4588-b97a-8d230b5ed915,sba,Wild Ren Wines,wild-ren-wines,-32.7718094,151.283241,Pokolbin,dbeebdbb-4238-4a82-b4d6-00323a0f0c44,Hunter Valley,hunter-valley
10cf87fe-020a-472a-bdb7-79df649172e2,sba,Helios Brewing,helios-brewing,-27.5296816,153.0110814,Brisbane,361cd83c-0c7a-4725-b7d5-b4982ee0ec07,Brisbane,brisbane
10f2b114-f0f6-46d4-bf0c-ca3523888fa3,craft,Pickled Pig Patchwork and Quilting.,pickled-pig-patchwork-and-quilting,-37.5612607,143.8726577,,,,
111bd2a0-6744-4884-97fc-79b840735ee4,sba,Hillbilly Cider,hillbilly-cider,-33.5049648,150.5453505,Blue Mountains,,,
111dfca9-47e7-43be-a930-99eef268a42c,sba,Killara Distillery,killara-distillery,-42.7102015,147.4502334,Coal River Valley,44270aeb-3822-4d3a-913f-fd55f99f6f8c,Hobart & Southern Tasmania,hobart
11231cc2-c96c-4c00-b619-d917ec274233,collection,National Road Transport Museum and Hall of Fame,national-road-transport-museum-and-hall-of-fame,-23.776205,133.867148,Alice Springs,,,
11329607-3c27-4a53-90ea-63e33aa7e3fd,craft,Paint Juicy - Paint and Sip & Entertainment,paint-juicy-paint-and-sip-and-entertainment,-28.0757266,153.44305,,,,
1135190d-fd24-4814-acac-0e9d309ab033,sba,CW Wines - Stonehaven Winery,cw-wines-stonehaven-winery,-36.6590516,140.5461211,Padthaway,,,
11382de1-a33a-42fc-a9b1-b939c8130b3e,sba,Paul Osicka Wines,paul-osicka,-36.8484323,144.9249523,Heathcote,,,
113deab1-153a-479c-ad9c-626b08fbf240,craft,Christopher Green Manufacturing Jewellers PTY LTD,christopher-green-manufacturing-jewellers-pty-ltd,-34.923254,138.601815,Adelaide,09c0c80f-4213-40b5-9ecd-df5f0f557f2e,Adelaide,adelaide
11450a94-6862-4fbb-ab19-ab0c09833281,sba,Brix Distillers,brix-distillers,-33.8829022,151.2165581,Sydney,926b0253-8c9a-4734-bc1a-57156fad7006,Sydney,sydney
114bd385-8d65-48f4-9720-f84a9614b8ab,field,Dead Horse Gap Walk,dead-horse-gap-walk,-36.5333,148.2833,Snowy Mountains,,,
114cd6c8-9799-4857-96fc-96011dbc97e5,sba,Mountain Goat Beer,mountain-goat-beer,-37.8167663,145.0128053,Melbourne,80bed70c-cbb4-4ef0-b018-4f0b72de8ebb,Melbourne,melbourne
115fefa5-a9b2-46b8-9b96-1b48134c2ae8,sba,Harvey River Bridge Estate,harvey-river-bridge,-33.0626821,115.8924578,Geographe,,,
11642442-9607-4909-9ef5-02df7dfbf51e,craft,TSJoinery,tsjoinery,-28.1466718,153.4750511,,,,
1169581f-4c65-4f74-aabb-33b63cb31779,sba,Barrecas Wines,barrecas-wines,-33.5976997,115.8570347,Brookhampton,,,
1169eac5-6965-4632-84e4-b2a2d4aeb712,collection,Castlemaine Art Museum,castlemaine-art-museum,-37.0664,144.2155,Castlemaine,,,
116f4816-7dc4-4a09-999d-222d38c82e24,craft,Formston Ceramics,formston-ceramics,-37.7652089,145.2647049,,80bed70c-cbb4-4ef0-b018-4f0b72de8ebb,Melbourne,melbourne
117a9d67-fc64-4197-ab6f-6b33664a9a6f,sba,Stone & Wood Byron Bay,stone-wood-byron-bay,-28.6371693,153.5807582,Byron Bay,d5d8e24f-78cf-4c8a-9266-94f140f3d8c2,Byron Bay,byron-bay
1180cb8e-340b-4bb7-b01a-3413fef07d73,sba,Bridge Road Brewers,bridge-road-brewers,-36.36,146.69,Beechworth,,,
118f0251-ff4d-487d-8202-709dd3013e7a,found,Vinnies Darwin City,vinnies-darwin-city,-12.4634,130.8456,,13ce91e7-efed-493e-9c0a-1e7fa8b90993,Darwin & Top End,darwin-top-end
11935d10-a3e3-4676-b00c-54622ef181b4,sba,Damaged Goods Distilling Co.,damaged-goods-distilling-co,-31.8352891,116.0167391,Herne Hill,6db96085-9bfe-45be-a2a9-e82b5fe66c91,Perth,perth
1194a86b-15e5-46bf-bf4a-5181cec895e1,craft,Mixed Goods Studios,mixed-goods-studios,-34.8729288,138.555454,Adelaide,09c0c80f-4213-40b5-9ecd-df5f0f557f2e,Adelaide,adelaide
11a3fbf5-771e-4b17-ab46-bdd6a12dae61,field,Namadgi National Park,namadgi-national-park,-35.65,148.9167,Canberra Region,755af99b-f2ba-478a-9915-b431b369ad7f,Canberra District,canberra-district
11ac057f-2932-4aa2-8413-d529a85bac83,found,Treasure Chest Salvage Australia,treasure-chest-salvage-australia,-32.09668,115.80139,7/15 Port Kembla Dr,6db96085-9bfe-45be-a2a9-e82b5fe66c91,Perth,perth
11b1a7fe-e9e5-4e2c-8187-3a07ea71c9aa,corner,The Book Cow Kingston,the-book-cow-kingston,-27.405833,153.022879,47 Jardine St,361cd83c-0c7a-4725-b7d5-b4982ee0ec07,Brisbane,brisbane
11b453d4-b2fd-475d-a7db-016d06ea351c,craft,Savoir-Faire Jewellery,savoir-faire-jewellery,-37.8032357,144.964585,Melbourne,80bed70c-cbb4-4ef0-b018-4f0b72de8ebb,Melbourne,melbourne
11b7d50f-aef9-4ef1-8d5a-231be5a82786,craft,The Creator Incubator,the-creator-incubator,-32.9113732,151.7385608,Newcastle,,,
11c00d66-ae75-4b02-8c86-fc23ca68a98a,craft,Blank Canvas Screen Printing,blank-canvas-screen-printing,-33.74677,150.654771,,926b0253-8c9a-4734-bc1a-57156fad7006,Sydney,sydney
11cfef80-8a30-4884-bd8a-3eed6ca89d11,sba,Devils Corner,devils-corner,-41.9723364,148.1521308,East Coast,,,
11dcf31d-92be-4cbe-9bbf-2a291add8d8d,sba,Darraweit Valley Cider House,darraweit-valley-cider-house,-37.400128,144.8905117,Darraweit Guim,,,
11ddee6c-d7d2-4221-a57e-2109319d5de4,craft,Sally Rose Jewellery,sally-rose-jewellery,-38.2346224,145.0577359,,80bed70c-cbb4-4ef0-b018-4f0b72de8ebb,Melbourne,melbourne
11e727d7-4c94-4830-bbde-9059cf3d837d,collection,Queenstown Heritage Centre,queenstown-heritage-centre,-42.079,145.555,Queenstown,,,
11f910fa-0c0a-48b9-a6f5-f689ec2da4b6,craft,Bennett's Printing,bennetts-printing,-33.7087562,150.3221684,,926b0253-8c9a-4734-bc1a-57156fad7006,Sydney,sydney
11fc1e02-9470-4a2d-aaef-05103249c417,craft,Lifestyle Furniture,lifestyle-furniture,-42.8801894,147.3263492,Hobart City,22815e33-8179-4e95-aa4e-13acb289e0e9,Hobart City,hobart-city
12031e71-8c9f-4f3d-acd6-2ce5246af725,sba,Hopsters Brewing Co,hopsters-brewing,-33.8992701,151.1717076,Sydney,926b0253-8c9a-4734-bc1a-57156fad7006,Sydney,sydney
12232302-5040-4fc9-9325-4bbddda162b3,sba,False Cape Wines,false-cape-wines,-35.8287277,137.9614099,Kangaroo Island,,,
123137a6-6031-4e16-8ce1-e2324f27f136,craft,TBH Studio,tbh-studio,-37.5625152,143.863002,,,,
1245c50d-def4-48f7-845a-62ae6abafc97,sba,Rockcliffe Winery,rockcliffe-winery,-34.9285358,117.3439407,Great Southern,,,
1247b590-6fb1-46c5-8d77-48c7073e973f,craft,Studio Ink,studio-ink,-36.7604988,144.2798574,,,,
1258ac42-baed-4fb8-bf73-1d7712f0729f,craft,Adelaide Artistic Glass,adelaide-artistic-glass,-34.9798238,138.5286275,Adelaide,09c0c80f-4213-40b5-9ecd-df5f0f557f2e,Adelaide,adelaide
1267fa19-9d86-4344-8683-552c01bf5078,sba,Moorooduc Estate,moorooduc-estate,-38.2729354,145.0976643,Mornington Peninsula,80bed70c-cbb4-4ef0-b018-4f0b72de8ebb,Melbourne,melbourne
12830082-5efc-4422-84dd-c24bdc515f3b,sba,Wild Hop Brewing Company,wild-hop-brewing-company,-33.6951474,115.0638318,Yallingup,,,
12884eaa-8d91-41e0-83f6-6e73abd2c619,craft,Healesville Fine Art Gallery,healesville-fine-art-gallery,-37.6731653,145.5307896,,80bed70c-cbb4-4ef0-b018-4f0b72de8ebb,Melbourne,melbourne
1298ddaf-1628-49a6-8358-a1a3f418ddff,sba,Otter Craft Distilling,otter-craft-distilling,-33.8722001,151.1651839,Lilyfield,926b0253-8c9a-4734-bc1a-57156fad7006,Sydney,sydney
12ae7f02-d9c0-46d9-8f12-441cf8257dc5,craft,Phresh Prints Pty Ltd,phresh-prints-pty-ltd,-34.4583816,150.8476012,,,,
12ae9987-bb3a-4168-8713-3bb54e5002ac,sba,King River Brewing,king-river-brewing,-36.7305259,146.4069976,Whitfield,,,
12c803f7-7cd1-4ebf-95ec-f96a41e3e20f,sba,Freestyle Brewing,freestyle-brewing,-31.9069404,115.93087,Bassendean,6db96085-9bfe-45be-a2a9-e82b5fe66c91,Perth,perth
12c8fb10-638b-4410-b511-8473420892d4,craft,Art Quill & Co Pty Ltd,art-quill-and-co-pty-ltd,-33.063057,151.576573,,,,
12d11f7b-6a41-4838-b47c-9da871420479,fine_grounds,Market Lane Cafe - Prahran,market-lane-prahran,-37.846019,144.99259,Melbourne,80bed70c-cbb4-4ef0-b018-4f0b72de8ebb,Melbourne,melbourne
12dee68d-517f-4aa7-a6b9-5ec6e5df0ffa,sba,Jacob's Creek,jacobs-creek,-34.563301,138.941534,Barossa Valley,,,
12df7914-bf6f-4fdc-b451-fe68a9dc4d52,sba,Port Beach Brewery,port-beach-brewery,-32.0370794,115.7512733,North Fremantle,6db96085-9bfe-45be-a2a9-e82b5fe66c91,Perth,perth
12edfd03-aa7d-4ddb-b6c8-c76f644739e3,sba,Lyrebird Ridge Organic Winery & Retreat,lyrebird-ridge-organic-winery-and-retreat,-34.8270687,150.4680145,Budgong,,,
12f76461-868f-4b00-a0c6-8fc3d6a8e4a6,sba,Imbue Distillery Door,imbue-distillery-door,-37.699279,145.187087,Research,80bed70c-cbb4-4ef0-b018-4f0b72de8ebb,Melbourne,melbourne
12fb0344-4be8-4194-b9c7-5b2b31fb20bd,craft,Caloundra Regional Gallery,caloundra-regional-gallery,-26.8037898,153.1308033,,,,
130062eb-f55b-4f56-8bb9-1f445c5857bf,sba,Akasha Brewing Company,akasha-brewing-company,-33.8697751,151.1182256,Five Dock,926b0253-8c9a-4734-bc1a-57156fad7006,Sydney,sydney
13045850-5853-4b15-a6ab-b31aee0c75af,collection,Warragul Arts Centre,warragul-arts-centre,-38.16,145.931,Warragul,,,
1309ac48-3e1d-444c-b551-3cbb72739f9f,craft,Diamondport Jewellers,diamondport-jewellers,-27.4689123,153.0260181,Brisbane,361cd83c-0c7a-4725-b7d5-b4982ee0ec07,Brisbane,brisbane
13155004-b0f0-44d2-affa-6c6c80819c2f,craft,Universal Printers,universal-printers,-31.453175,152.881609,,,,
13158bdc-e491-4ded-97f2-993545406027,craft,Wood Expression Co,wood-expression-co,-37.6953079,144.780624,,80bed70c-cbb4-4ef0-b018-4f0b72de8ebb,Melbourne,melbourne
131ce657-f118-44b8-91a9-0d320c8f80ef,rest,Qualia Hamilton Island,qualia-hamilton-island,-20.333024,148.946847,Whitsundays,,,
131faa30-0063-47e4-a064-307d2190ed3f,sba,Nagambie Brewery and Distillery,nagambie-brewery-and-distillery,-36.7850207,145.1534886,Nagambie,,,
1327a4aa-e1c7-466b-8bd2-945b776eb635,sba,Bruny Island Beer Co,bruny-island-beer,-43.2044708,147.3856446,Bruny Island,44270aeb-3822-4d3a-913f-fd55f99f6f8c,Hobart & Southern Tasmania,hobart
132f6ccb-65c9-4922-946d-6d52b759daab,craft,Stanley's Studio/Gallery,stanleys-studio-gallery,-43.1548032,147.0739505,,44270aeb-3822-4d3a-913f-fd55f99f6f8c,Hobart & Southern Tasmania,hobart
1338a34a-1cce-4a8c-b88f-26e32aa5d115,craft,Margaret Hadfield Gallery Studio,margaret-hadfield-gallery-studio,-35.3232623,149.1786858,,755af99b-f2ba-478a-9915-b431b369ad7f,Canberra District,canberra-district
133e4853-414d-4a85-aad1-378e940fc751,sba,Blackflag Brewing Coolum,blackflag-brewing-coolum,-26.5248571,153.064887,Coolum Beach,,,
13478c8a-20f0-479b-814d-5fe3700d1884,craft,The Jewellers Workshop,the-jewellers-workshop,-28.64207,153.6132402,,d5d8e24f-78cf-4c8a-9266-94f140f3d8c2,Byron Bay,byron-bay
13548786-7970-4a0e-ab29-78042652ab2b,sba,Sussex Squire Wines,sussex-squire-wines,-33.8686122,138.5932183,Clare,,,
1359dc96-cbb9-49a3-aed9-f44ac72d3903,sba,Cedar Creek Estate,cedar-creek-estate,-27.9374928,153.1895494,Tamborine Mountain,,,
135a800a-ecaa-4e4e-b7a2-fb3d823c010f,sba,30 Knots Distillery,30-knots-distillery,-28.7615212,114.6162685,Beresford,,,
135cf62c-68d2-4cc1-ba9e-50dad797b39c,craft,Art from the Urban Wilderness,art-from-the-urban-wilderness,-27.3822908,153.0786137,Brisbane,361cd83c-0c7a-4725-b7d5-b4982ee0ec07,Brisbane,brisbane
13636e18-531d-4cc7-acb2-f3c179393871,rest,Harland Rise Chapel,harland-rise-chapel,-41.547071,147.269958,"46 Dalness Road,  Evandale",,,
138f9c9c-0b50-4352-982b-8f16073f71d8,rest,Parcoola Retreats Riverside Escape,parcoola-retreats-riverside-escape,-34.14903,140.29506,14376 Goyder Hwy,,,
1393cd92-ed1f-4579-b1fc-dc8ac2493512,collection,Redlands IndigiScapes Centre,redlands-indigiscapes-centre,-27.547056,153.217677,Capalaba,,,
13964c6a-7647-46c2-90a0-82a7e37e6966,sba,Munari Wines,munari-wines,-36.828614,144.7105743,Heathcote,,,
13a286a6-8486-43d6-98ab-e3a5932737d0,sba,Autonomy Distillers,autonomy-distillers,-37.2342636,144.4510882,Kyneton,,,
13afd72a-e5ba-4672-906a-95b647d050da,craft,Backwoods Gallery,backwoods-gallery,-37.797802,144.9861062,Melbourne,80bed70c-cbb4-4ef0-b018-4f0b72de8ebb,Melbourne,melbourne
13b8b293-2f1d-4a7a-b4cc-371efe514fb0,corner,Script & Seal,script-and-seal-canberra,-35.312,149.14,,755af99b-f2ba-478a-9915-b431b369ad7f,Canberra District,canberra-district
13bd6237-940f-4bb4-931d-778e789429f4,sba,Cauldron Distillery,cauldron-distillery,-27.9394468,153.1901686,Brisbane,,,
13cc9c6d-ccd6-4911-836a-96759dd58f94,sba,Savannah Estate,savannah-estate,-32.8309384,151.3208834,Cessnock,dbeebdbb-4238-4a82-b4d6-00323a0f0c44,Hunter Valley,hunter-valley
13d9f5f1-09cd-4044-834a-1e60f3c6c2a3,sba,YEPP Brewing Company,yepp-brewing-company,-23.1635044,150.7067457,Hidden Valley,,,
13eb39ec-9310-4875-b26d-27b9d9c962e8,rest,Eco Beach Resort,eco-beach-resort,-16.025752,128.423664,"323 Great Northern Highway, Broome",,,
140af420-cba1-443a-8fe1-2e448bf2aea1,sba,Critters Distillery,critters-distillery,-30.1226008,153.1963634,Woolgoolga,,,
140f223f-386e-4c24-ac44-e933d3c424e8,sba,Pizzini Wines,pizzini-wines,-36.7818925,146.4135171,King Valley,,,
141910e8-dbd6-4526-b0d3-bd19b52fa6c4,sba,Shadowfax Winery,shadowfax-winery,-37.929476,144.678254,Bellarine Peninsula,80bed70c-cbb4-4ef0-b018-4f0b72de8ebb,Melbourne,melbourne
144b6a55-4ab2-4ef2-ae38-3945adda4f36,found,The Shop in the Bush,the-shop-in-the-bush,-41.294128,148.186148,25977 Tasman Hwy,,,
14568034-e792-432b-bff8-bbb0826fd49c,sba,Nikola Estate,nikola-estate,-31.8544655,115.998719,Middle Swan,6db96085-9bfe-45be-a2a9-e82b5fe66c91,Perth,perth
1458fed4-1102-45b4-92b2-41d223db5a62,sba,Lake Daylesford Brewing,lake-daylesford-brewing,-37.3441128,144.1423952,Daylesford,,,
146727ac-27ec-4697-928d-16bd8635938e,sba,Earth Beer Company,earth-beer-company,-28.2669575,153.5526032,Cudgen,,,
14690d54-5a4f-4b94-bcaf-1acb6cdfe665,rest,Sensom Bed and Breakfast,sensom-bed-and-breakfast,-30.229838,153.136636,235 The Mountain Way,,,
146aa4d8-c55a-4faf-8c9f-d3a7beb732dc,craft,Artists Shed,artists-shed,-35.3232623,149.1786858,,755af99b-f2ba-478a-9915-b431b369ad7f,Canberra District,canberra-district
146dca5b-7549-453f-baad-54f2083c79f5,craft,Yarnarama - open by appointment,yarnarama-open-by-appointment,-34.8416262,138.669547,Adelaide,09c0c80f-4213-40b5-9ecd-df5f0f557f2e,Adelaide,adelaide
147224b1-ee27-4b82-b5be-ba0c19a1904b,craft,Nicci Daniele Art Studio,nicci-daniele-art-studio,-35.0260179,117.8839565,,,,
14737827-7e6f-4f3b-8b37-136479faaf22,table,Meatmaiden,meatmaiden,-37.814821,144.96805,Basement/195 Little Collins St,80bed70c-cbb4-4ef0-b018-4f0b72de8ebb,Melbourne,melbourne
1474ea35-d950-4314-bfe9-b773b194420f,craft,Kitchens by CCJS,kitchens-by-ccjs,-16.9400729,145.7546708,,,,
1478c2e4-7dda-4615-aaf7-7ed7f7eb0f0c,collection,Latrobe Historical Society Museum,latrobe-historical-society-museum,-41.236585,146.418909,Tamar Valley,,,
147f119c-08c8-4093-a08a-426a85ab979f,sba,Brindabella Hills Winery,brindabella-hills-winery,-35.1739596,148.9622942,Wallaroo,,,
148b2278-4cdc-4d57-9fad-9612d9307aae,collection,Northam Heritage Centre,northam-heritage-centre,-31.661713,116.660192,Fremantle & Swan Valley,,,
14998f58-9736-482d-bb0a-a8c8460977d1,rest,Billabong Retreat,billabong-retreat,-33.618437,150.928552,41 Mcclymonts Rd,926b0253-8c9a-4734-bc1a-57156fad7006,Sydney,sydney
14acc46e-f2fc-4aab-842e-f10b3dfcaacf,sba,Steam Jacket Brewing,steam-jacket-brewing,-37.729716,145.016136,Reservoir,80bed70c-cbb4-4ef0-b018-4f0b72de8ebb,Melbourne,melbourne
14b3e1a8-f2cf-4a0b-af5d-0f3761e12949,craft,Snap Print Solutions Port Macquarie,snap-print-solutions-port-macquarie,-31.4317994,152.9085754,,,,
14ded1e1-1b47-44ab-9587-85bbd5f8bec0,collection,Australian Motorlife Museum,australian-motorlife-museum,-34.424842,150.897794,Southern Highlands,,,
14f175e0-fa8c-4f1e-afe3-e3e2faae4d03,craft,Glazed and Confused studio Hobart,glazed-and-confused-studio-hobart,-42.8801079,147.3270612,Hobart City,22815e33-8179-4e95-aa4e-13acb289e0e9,Hobart City,hobart-city
14f3f1ee-e105-4e1d-9db2-e3dab8f75ceb,rest,Depot Beach Cabins,depot-beach-cabins,-35.628673,150.324206,South Coast NSW,,,
14fb9ef5-c3e0-41ae-8ee8-48b17226bc9e,collection,National Museum of Australia,national-museum-of-australia,-35.2942,149.1219,Acton,755af99b-f2ba-478a-9915-b431b369ad7f,Canberra District,canberra-district
15035801-4518-49e9-861f-87427b488ca6,craft,"Gold Coast Gold Buyers ( BEST BUY / SELL RATES ) BULLION , JEWELLERY",gold-coast-gold-buyers-best-buy-sell-rates-bullion-jewellery,-27.9684226,153.4133254,,,,
1516d1eb-518d-4a54-b221-ee1d486288b6,sba,Great Lakes Paddocks,great-lakes-paddocks,-32.2677205,152.3337163,Wootton,,,
151d84a4-9b5c-402a-8faa-ec25f870c021,collection,Callington Mill,callington-mill,-42.29872,147.376335,Hobart & Southern Tasmania,44270aeb-3822-4d3a-913f-fd55f99f6f8c,Hobart & Southern Tasmania,hobart
152064c6-c14b-4f3f-aa4e-5f673d834ca5,craft,Mayfield Street Studios,mayfield-street-studios,-37.8082479,145.0003979,Melbourne,80bed70c-cbb4-4ef0-b018-4f0b72de8ebb,Melbourne,melbourne
1533067d-30cf-410b-8c62-d87c690a9b4e,sba,Hard Road Brewing,hard-road-brewing,-37.850716,145.281061,Bayswater,80bed70c-cbb4-4ef0-b018-4f0b72de8ebb,Melbourne,melbourne
15371f81-0c78-4b92-bb90-771f688e9f10,rest,The Quarry House Luxury Retreat,the-quarry-house-luxury-retreat,-42.875838,147.327356,95 Brooker Hwy,22815e33-8179-4e95-aa4e-13acb289e0e9,Hobart City,hobart-city
153b2dcb-504f-4fe8-a7d0-9b274cf174b3,rest,The Eco Cabin Tasmania,the-eco-cabin-tasmania,-41.520841,146.655774,6 Tower Hill St,,,
1541f126-d357-4fef-8f69-0b958a010211,field,Jim Jim Falls,jim-jim-falls,-13.2833,132.55,Kakadu,13ce91e7-efed-493e-9c0a-1e7fa8b90993,Darwin & Top End,darwin-top-end
15448446-7804-41b1-a154-1e4249e3c0f0,sba,Wild Flower Gin Distilling,wild-flower-gin-distilling,-28.1001095,153.405702,Varsity Lakes,,,
15499c39-e362-4140-8a68-e6fa12ffeafe,fine_grounds,Cafetal Coffee Roasters,cafetal-coffee-roasters,-37.76556,144.97087,"5 Overend Street, East Brisbane QLD, 4169",80bed70c-cbb4-4ef0-b018-4f0b72de8ebb,Melbourne,melbourne
154ef079-e1e0-4011-b1c6-7d261e9ca54d,sba,Your Mates Brewing Co.,your-mates-brewing-co,-26.7269549,153.1232294,Warana,,,
1568a3dd-db3a-4725-99a5-7afa14db8111,collection,Port Hedland Courthouse Gallery & Studio,port-hedland-courthouse-gallery-and-studio,-20.31,118.576,Port Hedland,,,
15769adf-0a9a-4b39-8b58-09d307315a9d,rest,Daintree Peaks ECO Stays,daintree-peaks-eco-stays,-27.567523,152.69086,22 Ironbark Rd,,,
1589c123-d211-4a65-a6b3-0957b18ef856,found,Empire Revival,empire-revival,-27.458115,152.994762,"167 Latrobe Terrace, Paddington, QLD, 4064",361cd83c-0c7a-4725-b7d5-b4982ee0ec07,Brisbane,brisbane
15905a30-1f32-45d2-8540-719adc8e4716,table,Little Missy Patisserie,little-missy-patisserie,-42.874538,147.320683,"151/153 Argyle Street, Hobart",22815e33-8179-4e95-aa4e-13acb289e0e9,Hobart City,hobart-city
1599b18c-e365-41af-8f9a-89633bf2d1d6,collection,Adelaide Botanic Garden,adelaide-botanic-garden,-34.9206,138.6068,Adelaide,09c0c80f-4213-40b5-9ecd-df5f0f557f2e,Adelaide,adelaide
15a1baa1-af5b-475e-bec3-6973c71fdf39,sba,Thunder Road Brewing,thunder-road-brewing,-37.7772934,144.9701732,Melbourne,80bed70c-cbb4-4ef0-b018-4f0b72de8ebb,Melbourne,melbourne
15a548b2-5c3a-48da-a3f2-e61b545fc0c5,collection,Merredin Military Museum,merredin-military-museum,-31.483,118.28,Merredin,,,
15b4d5cb-7436-4610-80ed-a847186a2909,collection,Warrnambool Botanic Gardens,warrnambool-botanic-gardens,-38.372759,142.483931,Great Ocean Road,,,
15c0d980-c490-41d6-a5f0-4d489de0cb88,craft,Terrapotter Studios,terrapotter-studios,-37.805526,144.950957,Melbourne,80bed70c-cbb4-4ef0-b018-4f0b72de8ebb,Melbourne,melbourne
15c2b56f-5707-438a-892c-ba3cbfa7e88b,sba,Glenbernie Orchard,glenbernie-orchard,-34.236595,150.917417,Darkes Forest,,,
15c69baf-2052-4fe9-88d3-4278d2d5d1d9,craft,Metal Urges Fine Jewellery & Diamonds,metal-urges-fine-jewellery-and-diamonds,-42.8818905,147.3263788,Hobart City,22815e33-8179-4e95-aa4e-13acb289e0e9,Hobart City,hobart-city
15f3c377-e687-4c33-b975-7b68d43660f3,craft,Opal and Gemstone Studio,opal-and-gemstone-studio,-35.0300299,138.8102579,,09c0c80f-4213-40b5-9ecd-df5f0f557f2e,Adelaide,adelaide
160f52b3-1f53-40aa-8f28-9abe8d8afb87,craft,Dragonfly Fabrics,dragonfly-fabrics,-12.3785066,130.8744506,,13ce91e7-efed-493e-9c0a-1e7fa8b90993,Darwin & Top End,darwin-top-end
16204bf4-dfa2-4a70-bb41-7b070a55fc7a,sba,Brew Nation,brew-nation,-35.278678,149.1298271,Canberra,755af99b-f2ba-478a-9915-b431b369ad7f,Canberra District,canberra-district
1627df81-2468-43d7-8684-a5df594af38b,sba,Hopscotch Distillers Pty Ltd,hopscotch-distillers-pty-ltd,-27.4828064,151.8658594,Gowrie Junction,,,
163946ff-4945-4d47-ad5c-02b165908f7b,craft,Tessuti Fabrics,tessuti-fabrics,-37.8157853,144.9699028,Melbourne,80bed70c-cbb4-4ef0-b018-4f0b72de8ebb,Melbourne,melbourne
163ea3e2-9c0a-4a11-94c7-1b72b03b4d05,collection,Meroogal,meroogal,-34.88,150.5992,Nowra,,,
16455501-7708-4677-bdcf-4bb6608dffee,craft,Silvershop Maroochydore,silvershop-maroochydore,-26.6554706,153.0880573,,,,
164f2a83-898e-48c7-8112-d52fa1a748ed,craft,LoomTex,loomtex-vic,-38.1830036,144.3806751,,,,
16520781-09bf-4492-8668-e66908168208,collection,Artspace Sydney,artspace-sydney,-33.8681,151.2228,Woolloomooloo,926b0253-8c9a-4734-bc1a-57156fad7006,Sydney,sydney
1652ce2f-37e4-484f-995f-239e4d0733bf,sba,Wildbrumby Schnapps Distillery,wildbrumby-schnapps-distillery,-36.442952,148.5161388,Crackenback,,,
1662115f-8e56-4385-8406-81f3224efc17,collection,The Wollondilly Heritage Centre and Museum,the-wollondilly-heritage-centre-and-museum,-34.082621,150.57176,43 Edward St,,,
16751e94-ab5b-4b0a-a490-cc90a90f09c4,fine_grounds,Code Black Coffee,code-black-coffee,-37.7741,144.9682,Brunswick East,80bed70c-cbb4-4ef0-b018-4f0b72de8ebb,Melbourne,melbourne
1697a586-61a5-42e1-9e6b-d1c9293a762f,collection,Wangaratta Art Gallery,wangaratta-art-gallery,-36.356099,146.325563,Wangaratta,,,
16cd0263-024d-46ce-8fe8-e4ec86f19668,sba,Stoic Brewing,stoic-brewing,-34.7425969,150.8209904,Gerringong,,,
16d9b2a8-23d5-40cf-a51e-4e30dc98fb39,craft,Hand Weavers & Spinners Guild of NSW Inc.,hand-weavers-and-spinners-guild-of-nsw-inc,-33.7926829,151.0668096,,926b0253-8c9a-4734-bc1a-57156fad7006,Sydney,sydney
16e32661-6aa8-4086-96a2-4bdd435bee7e,craft,Gold Coast Potters Association Mudgeeraba Campus,gold-coast-potters-association-mudgeeraba-campus,-28.0711004,153.3562457,,,,
16ed2f9a-fa36-43e1-adfa-b13de719f7d2,sba,Toowoomba Vineyard Church,toowoomba-vineyard-church,-27.5832606,151.9529907,Centenary Heights,,,
16f4a659-ce61-4a3b-9822-c93c761dee43,rest,Mineral Springs Hotel,mineral-springs-hotel,-32.936581,151.672488,"124 Main Rd, Hepburn Springs Victoria",,,
1703dbc5-b65f-4f0c-bff4-555121406805,collection,Hill End Historic Site,hill-end-historic-site,-33.010062,149.422863,Orange & Central West,,,
1723a4d6-18fe-4f3f-8c77-06fc2dcbb407,sba,Foreigner Brewing Co,foreigner-brewing,-37.7642779,144.9545671,Melbourne,80bed70c-cbb4-4ef0-b018-4f0b72de8ebb,Melbourne,melbourne
173205b9-8afa-4fea-903d-a3e1ccdd567f,craft,Designs in Timber,designs-in-timber,-28.101601,153.417748,,,,
174bd3dd-d052-4187-803f-1b2014062ef4,sba,Highland Heritage Cellar Door,highland-heritage-cellar-door,-33.3166693,149.1466658,Orange,ada12443-7cd7-432d-9bb5-37a735e47cfc,Orange,orange
175cb974-603a-4b1d-a650-ebf703088422,craft,Australian Print Workshop Inc.,australian-print-workshop-inc,-37.806423,144.981571,Melbourne,80bed70c-cbb4-4ef0-b018-4f0b72de8ebb,Melbourne,melbourne
17694b1a-1ba3-424e-a2c3-8ccf123e6c44,sba,Whistler Wines - Barossa Valley,whistler-wines-barossa-valley,-34.4915479,138.9559576,Stone Well,,,
17697218-4178-4a90-8c6f-44d692393452,found,Daylesford Antiques,daylesford-antiques,-37.3486,144.1529,,,,
1777aba5-319e-4c3a-ba28-7f05775aa7f2,collection,Burra Regional Art Gallery,burra-regional-art-gallery,-35.09124,138.539465,6 Market St,09c0c80f-4213-40b5-9ecd-df5f0f557f2e,Adelaide,adelaide
17911d7b-6e69-464c-a202-4d863629705b,craft,Thimble and Thread Quilting,thimble-and-thread-quilting,-36.9058627,144.7074775,,,,
17a17b25-6a45-462c-ae47-c5aadea8ad76,sba,Village Days Brewing Co.,village-days-brewing-co,-33.812983,151.048653,Central Coast,926b0253-8c9a-4734-bc1a-57156fad7006,Sydney,sydney
17b1a188-0bb4-4398-b3bc-366bfe7c2e60,craft,Australian Galleries,australian-galleries,-37.8070781,144.9847519,Melbourne,80bed70c-cbb4-4ef0-b018-4f0b72de8ebb,Melbourne,melbourne
17b95b28-24cb-4daf-ba74-a01af0d13b22,sba,Hope @ Honeysuckle,hope-honeysuckle,-32.9249257,151.7711822,Newcastle,,,
17bf8bcb-fbe3-4135-8ca6-6a95c2ec8a36,craft,Nicole is Nicole Ceramic,nicole-is-nicole-ceramic,-35.2809143,138.4556548,,09c0c80f-4213-40b5-9ecd-df5f0f557f2e,Adelaide,adelaide
17d6df2d-282e-4dfd-be6d-ec3e67d7da79,craft,Monash Scientific Glass Blowing Services,monash-scientific-glass-blowing-services-vic,-37.9895568,145.1885148,,80bed70c-cbb4-4ef0-b018-4f0b72de8ebb,Melbourne,melbourne
17e214ad-deb2-411f-9db9-ba7851f89b8e,craft,vanHoren - Macrame Jewellery Wirework,vanhoren-macrame-jewellery-wirework,-33.6330615,150.2965886,,,,
17e31864-69b7-4aa8-854b-c967b22aaa7a,sba,Jetty Road Brewery,jetty-road-brewery,-38.3320465,144.987442,Melbourne,80bed70c-cbb4-4ef0-b018-4f0b72de8ebb,Melbourne,melbourne
17e99326-6324-4515-9db0-5f9193439a50,craft,Screenplay Printing Studio,screenplay-printing-studio,-37.768712,144.973316,Melbourne,80bed70c-cbb4-4ef0-b018-4f0b72de8ebb,Melbourne,melbourne
17ee3d91-a04e-430f-82f7-7e616ba44d36,sba,Kalleske Wines,kalleske-wines,-34.45799,138.9283622,Barossa Valley,,,
17ef60d1-26ba-43a4-89b5-9b52b921e4a2,craft,61 Design,61-design,-37.5603762,143.8663857,,,,
18062ce4-c81b-4980-8114-d6092e24441d,fine_grounds,Industry Beans,industry-beans,-37.798,144.979,Fitzroy,80bed70c-cbb4-4ef0-b018-4f0b72de8ebb,Melbourne,melbourne
181c5968-1821-41c7-8535-8a27bb288af0,craft,Sarah Sheppard Ceramics,sarah-sheppard-ceramics,-26.8292502,153.1173168,,,,
18218890-a4dc-4442-89ad-01ec28e9d001,craft,Fleurieu Table Polishing,fleurieu-table-polishing,-35.545244,138.6205688,,,,
182588ff-ca73-4e88-a064-82c32cdccf73,craft,CoastWell Health,coastwell-health,-32.9279592,151.7592464,Newcastle,,,
18272090-ce24-40c9-a19e-362b3749f438,collection,Australian War Memorial Treloar Technology Centre,australian-war-memorial-treloar-technology-centre,-35.213,149.149,Canberra,755af99b-f2ba-478a-9915-b431b369ad7f,Canberra District,canberra-district
182d0712-d07e-45f3-b5f2-33f63d140aa6,field,Peterson Creek – Wildlife & Botanical Walking Track,peterson-creek-wildlife-botanical-walking-track,-17.269217,145.580372,Yungaburra QLD 4884,,,
184b74ce-4807-4392-9d01-29621fc34de9,craft,Clayful Pottery Studio,clayful-pottery-studio-nsw,-36.7956655,144.2444675,,,,
184febdd-ce84-455b-94f1-83f9b1368656,collection,Tasmanian Transport Museum,tasmanian-transport-museum,-42.828918,147.277724,Hobart & Southern Tasmania,44270aeb-3822-4d3a-913f-fd55f99f6f8c,Hobart & Southern Tasmania,hobart
185a19ac-70b1-4176-905d-e55ec229c39f,craft,Was Gallery,was-gallery,-38.15664,145.9230165,,,,
1860acf8-d9b8-4838-a1d2-02f9d6148fd8,table,Farm Cove Eatery,farm-cove-eatery,-33.86658,151.218022,1 Mrs Macquaries Rd,926b0253-8c9a-4734-bc1a-57156fad7006,Sydney,sydney
186cd78e-be4b-4d1a-b1a2-26077b874c5a,craft,Eamonn Vereker Glass,eamonn-vereker-glass,-34.9229467,138.6275486,Adelaide,09c0c80f-4213-40b5-9ecd-df5f0f557f2e,Adelaide,adelaide
187454dc-5158-4af0-b193-1c671b85bb9e,sba,Moffat Beach Brewing Co Production House,moffat-beach-brewing-co-production-house,-26.79465,153.1071487,Caloundra West,,,
189a4aa4-2c20-49cd-af03-93358f905502,sba,Noisy Ritual,noisy-ritual-1,-37.771109,144.971472,Brunswick East,80bed70c-cbb4-4ef0-b018-4f0b72de8ebb,Melbourne,melbourne
189a71a0-e17a-44f1-904b-ef99965a3e7e,sba,Maxwell Wines,maxwell-wines,-35.207635,138.541755,McLaren Vale,09c0c80f-4213-40b5-9ecd-df5f0f557f2e,Adelaide,adelaide
18a0b97f-6110-4b04-baab-298cb3bb16cc,rest,Victoria & Albert Guesthouse,victoria-albert-guesthouse,-33.589483,150.256596,19 Station St,,,
18a8f064-251d-4121-aa54-8e6d7eb2dc42,sba,Morgans Winery & Distillery,morgans-winery-and-distillery,-37.7862776,145.4861203,Seville,80bed70c-cbb4-4ef0-b018-4f0b72de8ebb,Melbourne,melbourne
18a9a80b-0c59-4f26-8d57-42daddbbffea,collection,Bass Coast Heritage Centre Inverloch,bass-coast-heritage-centre-inverloch,-38.628,145.729,Inverloch,,,
18bcd66f-17f6-405f-9021-96701976ab9b,sba,Gales Brewery,gales-brewery,-37.7690116,144.9733595,Brunswick East,80bed70c-cbb4-4ef0-b018-4f0b72de8ebb,Melbourne,melbourne
18c03e73-a605-40f0-b350-3604e103d494,craft,Fremantle Opals,fremantle-opals,-32.0547842,115.746467,,6db96085-9bfe-45be-a2a9-e82b5fe66c91,Perth,perth
18c9bec7-246e-494e-ab47-26c15c7edfae,sba,Hobart Brewing Company,hobart-brewing-company,-42.877,147.338,Hobart,22815e33-8179-4e95-aa4e-13acb289e0e9,Hobart City,hobart-city
18d77aed-eb03-4efe-9a7b-39b4d51179c6,sba,Krinklewood Organic & Biodynamic Estate,krinklewood-organic-and-biodynamic-estate,-32.7955379,151.0743334,Broke,dbeebdbb-4238-4a82-b4d6-00323a0f0c44,Hunter Valley,hunter-valley
18da175d-9063-48f8-89f9-ecf959dce3a9,craft,DaRawNature Studio Gallery,darawnature-studio-gallery,-32.0547443,115.743683,,6db96085-9bfe-45be-a2a9-e82b5fe66c91,Perth,perth
18e6c4f3-6898-4103-b663-f36ff199d8cb,fine_grounds,Yellow Bernard,yellow-bernard,-41.434141,147.139195,Launceston & Tamar Valley,,,
18f9f3fe-0b11-4036-8976-64161c870135,craft,Melting Pot Glass Studio,melting-pot-glass-studio,-33.9506955,115.0386588,,,,
18fe5b79-b03a-4cfa-8213-fd75298172e7,collection,Benalla Art Gallery,benalla-art-gallery,-36.55045,145.989261,Yarra Valley,,,
18fef7c1-30cc-4a2a-bd4b-75ca187dd0ed,craft,Daylesford Spirit,daylesford-spirit,-37.3423551,144.1429939,,,,
19029bbc-0c9e-4d16-99d1-a2c47a087dff,sba,The Lord Howe Island Brewery,the-lord-howe-island-brewery,-31.5249677,159.0670065,Lord Howe Island,,,
190f52a9-53d7-485d-86fd-1052756d29cd,field,Castle Cove Lookout,castle-cove-lookout-gor,-38.6667,143.1,Great Ocean Road,,,
19181c03-e0db-4572-8582-7a77e3a915a1,craft,Fabric Lab,fabric-lab,-37.8032118,144.9774375,Melbourne,80bed70c-cbb4-4ef0-b018-4f0b72de8ebb,Melbourne,melbourne
191d8be1-0f66-49eb-b7dd-5557f1a92328,craft,Flinders Lane Gallery,flinders-lane-gallery,-37.8167028,144.9666895,Melbourne,80bed70c-cbb4-4ef0-b018-4f0b72de8ebb,Melbourne,melbourne
1930e3d8-484f-48d1-9828-fdc2e762d9c0,craft,Noosa Art Gallery,noosa-art-gallery,-26.4189158,153.0463967,,,,
193cfa6f-893c-4b41-bb44-4ccce5581e38,sba,Dutschke Wines,dutschke-wines,-34.6074015,138.8742371,Barossa Valley,,,
19429997-9c00-413c-9287-9bdfd473f981,found,Bendigo Antiques & Collectables,bendigo-antiques,-36.758,144.28,,,,
1944a959-5c54-481f-aeef-d1797fd309f9,craft,RIM FABRICS,rim-fabrics,-37.843234,145.277739,,80bed70c-cbb4-4ef0-b018-4f0b72de8ebb,Melbourne,melbourne
19474541-574d-448a-a464-270760188bfc,sba,Liberty Brewing Co Taproom,liberty-brewing-co-taproom,-37.9722886,145.0851552,Cheltenham,80bed70c-cbb4-4ef0-b018-4f0b72de8ebb,Melbourne,melbourne
194fb2d3-9bbd-486d-a210-5c9e432d19a6,sba,Darwin Distilling Co,darwin-distilling-co,-12.4623443,130.8417816,Darwin City,13ce91e7-efed-493e-9c0a-1e7fa8b90993,Darwin & Top End,darwin-top-end
195ff068-7768-403c-99c3-8cd403d6ca8f,collection,Central Deborah Gold Mine Bendigo,central-deborah-gold-mine-bendigo,-36.765072,144.269916,Central Victoria,,,
1961db6a-5ddc-42a2-910d-f3f7bec6631d,sba,The Rogue Scholar,the-rogue-scholar,-32.9277895,151.7670178,Newcastle West,,,
19629876-d367-47f6-b2c5-6414ef34ab86,sba,Loch Spirits,loch-spirits,-38.369101,145.707453,Gippsland,,,
19648022-9367-40d3-add8-e614ac9c7027,sba,Ripplebrook Winery,ripplebrook-winery,-38.1741822,145.7925512,Ripplebrook,,,
196a5604-2d1f-4227-8135-c25fff883713,collection,National Trust SA — Carrick Hill,national-trust-sa-carrick-hill,-34.980901,138.632629,Adelaide,09c0c80f-4213-40b5-9ecd-df5f0f557f2e,Adelaide,adelaide
196d7c4d-160a-4af2-87f9-a6a6bf8e6ccf,craft,NANCY SEVER l GALLERY,nancy-sever-l-gallery,-35.2783711,149.1310541,,755af99b-f2ba-478a-9915-b431b369ad7f,Canberra District,canberra-district
198330ca-f04a-44f2-bf12-84c58c909676,sba,Rebellion Brewery,rebellion-brewery,-37.5408059,143.8109226,Wendouree,,,
19895830-cd68-4649-97f2-b4b294751bc0,craft,Finelines Jewellers,finelines-jewellers,-28.0637159,153.4044521,,,,
19bf519d-ac80-43ba-883d-2da11371a2c5,found,Brotherhood of St Laurence Camberwell,brotherhood-camberwell,-37.8267,145.0573,Melbourne,80bed70c-cbb4-4ef0-b018-4f0b72de8ebb,Melbourne,melbourne
19c27baa-8577-4fb2-a904-f86736631b40,sba,Vinden Wines,vinden-wines,-32.76128,151.2970123,Pokolbin,dbeebdbb-4238-4a82-b4d6-00323a0f0c44,Hunter Valley,hunter-valley
19c6f5af-e2d3-448a-9f70-f9f1b5855dfc,sba,Woolstore Brewery,woolstore-brewery,-37.8311611,140.7742933,Mount Gambier,,,
19d71c7e-2575-474a-8445-5719a9f09152,craft,Cook Street Collective,cook-street-collective,-38.474203,145.017726,,80bed70c-cbb4-4ef0-b018-4f0b72de8ebb,Melbourne,melbourne
19db6720-1b64-4b8f-94a2-87628dfc7cb0,craft,Wool 2 Yarn,wool-2-yarn,-38.2315317,145.0483906,,80bed70c-cbb4-4ef0-b018-4f0b72de8ebb,Melbourne,melbourne
19e56c86-926b-457d-b5c4-3afa2c9eb448,sba,Meander Valley Vineyard,meander-valley-vineyard,-41.5367744,146.5936677,Red Hills,,,
19ebd332-0feb-4992-b396-4dd53d70bd32,craft,Delicious Art Classes & Workshops,delicious-art-classes-and-workshops,-27.5444875,151.9424673,,,,
19eec358-99be-447a-9af7-b2ed08006820,craft,Brooke Clunie Red Door Studio,brooke-clunie-red-door-studio,-28.7682102,153.4994531,,,,
1a0a2234-991a-4c41-a798-193eb0876e77,found,#noddys,noddys,-35.034205,138.537968,11 Gawler St,09c0c80f-4213-40b5-9ecd-df5f0f557f2e,Adelaide,adelaide
1a1692a9-93db-4e7f-8f69-2ae546e0f027,sba,Brandy Creek Estate,brandy-creek-estate,-38.1086683,145.8962834,Drouin East,,,
1a1d000d-8b98-49d2-be92-58154eaedc38,craft,Kwik Kopy Ballarat,kwik-kopy-ballarat,-37.5644086,143.8637453,,,,
1a1fb2ec-21e6-4e01-ba4e-aff784ac992e,sba,Hounds Run Vineyard,hounds-run-vineyard,-37.1851756,142.7835912,Great Western,,,
1a20f645-f044-48f5-931b-f033693cc07e,collection,Gallery of Modern Art,gallery-of-modern-art,-27.4741,153.0207,South Brisbane,361cd83c-0c7a-4725-b7d5-b4982ee0ec07,Brisbane,brisbane
1a313695-2e15-4046-bb1f-c2ae41debe79,craft,Foot & Playsted,foot-and-playsted-tas,-41.4369979,147.136497,,,,
1a4b599c-b57d-4daf-bb5e-4b2f386562fa,sba,Island Brook Estate,island-brook-estate,-33.7535819,115.1500083,Yelverton,,,
1a4de934-df1e-45ae-98eb-451056db4d34,field,Kakadu National Park,kakadu-national-park,-13,132.5,Top End,13ce91e7-efed-493e-9c0a-1e7fa8b90993,Darwin & Top End,darwin-top-end
1a4e8fe4-815b-4d65-998d-d82998eedd7e,craft,Coast 2 Coast Sports ( C2C Sport),coast-2-coast-sports-c2c-sport,-31.4540462,152.8826599,,,,
1a579264-3cf0-4a38-ab79-92fac485476a,corner,Salt House Living,salt-house-living-noosa,-26.398363,153.091383,Noosa Hinterland,,,
1a6585cf-159d-472a-9d9b-d87948a83600,corner,The First Chapter - Indie romance bookshop,the-first-chapter-indie-romance-bookshop,-34.725916,138.631484,unit 2/15 Sturton Rd,09c0c80f-4213-40b5-9ecd-df5f0f557f2e,Adelaide,adelaide
1a665ec9-8b4e-4ca8-9c47-c591fbaee24b,craft,Vardhman Threads - Industrial Sewing Threads,vardhman-threads-industrial-sewing-threads,-36.1646584,145.8806052,,,,
1a6e7fe9-3990-4176-aa5b-9dbc285df8d9,sba,South Coast Brewing Co.& Chubby Unicorn brewing,south-coast-brewing-co-and-chubby-unicorn-brewing,-35.2687754,138.5422447,Willunga,09c0c80f-4213-40b5-9ecd-df5f0f557f2e,Adelaide,adelaide
1a782966-0e8e-4ff3-a3d8-560c63501e7d,craft,LOAF Gallery,loaf-gallery,-33.7094488,150.375439,,926b0253-8c9a-4734-bc1a-57156fad7006,Sydney,sydney
1a784282-f83c-4da0-83fd-3f83dca036a8,collection,Charleville Cosmos Centre & Observatory,charleville-cosmos-centre-and-observatory,-26.417363,146.2524,Charleville,,,
1a7a83b8-231f-419b-8dc2-bd4105d6ff1e,craft,McLean & Co Jewellers,mclean-and-co-jewellers,-26.7037155,153.1313501,,,,
1a8f6ed0-5ca9-4145-b250-255fc80ac610,sba,Spreyton Cider Co,spreyton-cider-co,-41.2451669,146.3426667,Spreyton,,,
1aa6aaff-f3d8-474e-90ee-4dade19f98f6,corner,Fremantle Press Books,fremantle-press-books,-32.0569,115.7487,,6db96085-9bfe-45be-a2a9-e82b5fe66c91,Perth,perth
