id,old_region,new_region,tier,live_region_id,state,suburb,lat,lng,address,region_computed_id,region_override_id
b3b8776e-5a43-4fa9-a548-45ca08174934,"1 Lyell St","Canberra District",1,755af99b-f2ba-478a-9915-b431b369ad7f,"ACT",,-35.328704,149.173181,"1 Lyell Street",755af99b-f2ba-478a-9915-b431b369ad7f,
e49881a0-60cf-4e4c-8698-54fb040b5f92,"18 King George Terrace, Parkes, ACT 2600","Canberra District",1,755af99b-f2ba-478a-9915-b431b369ad7f,"ACT",,-35.302157,149.129991,"18 King George Terrace",755af99b-f2ba-478a-9915-b431b369ad7f,
7a9c96bc-d956-4d4f-8a0b-0bab69d25ac4,"18 National Circuit","Canberra District",1,755af99b-f2ba-478a-9915-b431b369ad7f,"ACT",,-35.311917,149.133342,"18 National Circuit",755af99b-f2ba-478a-9915-b431b369ad7f,
96bffba1-7231-4e40-af08-ee74dc346953,"2/3 Wiluna St","Canberra District",1,755af99b-f2ba-478a-9915-b431b369ad7f,"ACT",,-35.328006,149.164646,"2/3 Wiluna Street",755af99b-f2ba-478a-9915-b431b369ad7f,
698f0516-5d34-44e4-9364-ac855dae802f,"325 Kambah Pool Rd","Canberra District",1,755af99b-f2ba-478a-9915-b431b369ad7f,"ACT",,-35.383409,149.040598,"325 Kambah Pool Road",755af99b-f2ba-478a-9915-b431b369ad7f,
11b1a7fe-e9e5-4e2c-8187-3a07ea71c9aa,"47 Jardine St","Canberra District",1,755af99b-f2ba-478a-9915-b431b369ad7f,"ACT",,-35.315774,149.14236,"47 Jardine Street",755af99b-f2ba-478a-9915-b431b369ad7f,
ca5bf769-ae36-4a20-b71f-850249abac12,"68 Bandjalong Cres","Canberra District",1,755af99b-f2ba-478a-9915-b431b369ad7f,"ACT",,-35.256415,149.078613,"68 Bandjalong Crescent",755af99b-f2ba-478a-9915-b431b369ad7f,
b2d79f27-fe13-4cc0-ae5b-505098547a48,"69 Canberra Ave","Canberra District",1,755af99b-f2ba-478a-9915-b431b369ad7f,"ACT",,-35.319154,149.137278,"69 Canberra Avenue",755af99b-f2ba-478a-9915-b431b369ad7f,
fd9b2d66-5fab-447f-969d-0dc56a6ef200,"Tharwa, ACT","Canberra District",1,755af99b-f2ba-478a-9915-b431b369ad7f,"ACT",,-35.513412,149.069789,"17 Naas Rd Tharwa, Tharwa ACT 2620",755af99b-f2ba-478a-9915-b431b369ad7f,
0014b4b8-e7ef-4af0-875b-ec363b29bf6f,"Lime Kiln Rd, Australian Capital Territory","",2,,"ACT",,-35.284464,139.501612,"Lime Kiln Road, ACT",,
81b5b359-3bad-41d3-bd58-a44e794fd507,"1 Badgery Cres","Blue Mountains",1,724bc280-a097-4808-a4c1-76085458c0e0,"NSW",,-33.717706,150.431102,"1 Badgery Crescent, Lawson NSW 2783",724bc280-a097-4808-a4c1-76085458c0e0,
cf2023af-49e3-4a30-ae3e-3f13ff0eb9c9,"13-17 Brightlands Ave","Blue Mountains",1,724bc280-a097-4808-a4c1-76085458c0e0,"NSW",,-33.649353,150.287239,"13-17 Brightlands Ave, Blackheath NSW",724bc280-a097-4808-a4c1-76085458c0e0,
aa2d68a6-060c-4549-98c0-4823afd9c44c,"17b Tusculum Rd","Blue Mountains",1,724bc280-a097-4808-a4c1-76085458c0e0,"NSW",,-33.702691,150.580782,"17b Tusculum Road, Valley Heights NSW",724bc280-a097-4808-a4c1-76085458c0e0,
3d66f3f0-9b5c-41ee-a64b-27c486873473,"186 Chapman Parade","Blue Mountains",1,724bc280-a097-4808-a4c1-76085458c0e0,"NSW",,-33.677849,150.564681,"186 Chapman Parade, Blue Mountains NSW",724bc280-a097-4808-a4c1-76085458c0e0,
18a0b97f-6110-4b04-baab-298cb3bb16cc,"19 Station St","Blue Mountains",1,724bc280-a097-4808-a4c1-76085458c0e0,"NSW",,-33.589483,150.256596,"19 Station Street, Mount Victoria NSW",724bc280-a097-4808-a4c1-76085458c0e0,
0623600e-b905-49a9-9297-c1d83f34dc04,"194 Great Western Hwy","Blue Mountains",1,724bc280-a097-4808-a4c1-76085458c0e0,"NSW",,-33.640239,150.284789,"194 Great Western Highway, Blackheath NSW 2785",724bc280-a097-4808-a4c1-76085458c0e0,
00b3d744-b2c3-4299-83f9-ce14978dfc27,"2 Closeburn Dr","Blue Mountains",1,724bc280-a097-4808-a4c1-76085458c0e0,"NSW",,-33.579469,150.245603,"2 Closeburn Drive, Mount Victoria NSW",724bc280-a097-4808-a4c1-76085458c0e0,
b1362bcd-8b75-43cb-a390-7465216a33bf,"46 Portland Rd","Blue Mountains",1,724bc280-a097-4808-a4c1-76085458c0e0,"NSW",,-33.677327,150.286235,"46 Portland Road, Medlow Bath NSW 2780, Medlow Bath NSW 2780",724bc280-a097-4808-a4c1-76085458c0e0,
4a6281a5-19ea-4ab9-b2c6-cb974f69948d,"88 Fletcher St","Blue Mountains",1,724bc280-a097-4808-a4c1-76085458c0e0,"NSW",,-33.720532,150.363764,"88 Fletcher Street, Wentworth Falls NSW",724bc280-a097-4808-a4c1-76085458c0e0,
72e0dc72-a8f3-416b-a011-ee4f7da5203d,"Katoomba, NSW","Blue Mountains",1,724bc280-a097-4808-a4c1-76085458c0e0,"NSW",,-33.720801,150.310258,,724bc280-a097-4808-a4c1-76085458c0e0,
aa01c5f5-6d0e-4705-8708-6d9d8b65a10f,"439 Federal drive, Federal","Byron Bay",1,d5d8e24f-78cf-4c8a-9266-94f140f3d8c2,"NSW",,-28.652483,153.455658,"439 Federal Drive, Federal NSW",d5d8e24f-78cf-4c8a-9266-94f140f3d8c2,
052ccea9-6bc9-4b74-9dcd-4c8f29db2366,"698 Left Bank Rd","Byron Bay",1,d5d8e24f-78cf-4c8a-9266-94f140f3d8c2,"NSW",,-28.549444,153.431605,"698 Left Bank Rd, Mullumbimby NSW",d5d8e24f-78cf-4c8a-9266-94f140f3d8c2,
60efe547-729f-4a14-9f25-745d5f588292,"Byron Bay, NSW","Byron Bay",1,d5d8e24f-78cf-4c8a-9266-94f140f3d8c2,"NSW",,-28.642212,153.61235,,d5d8e24f-78cf-4c8a-9266-94f140f3d8c2,
eb94d7cb-9afa-4db2-96dd-835388ace3df,"Byron Shire, NSW","Byron Bay",1,d5d8e24f-78cf-4c8a-9266-94f140f3d8c2,"NSW",,-28.644038,153.614198,,d5d8e24f-78cf-4c8a-9266-94f140f3d8c2,
88f43f2d-7222-4d0f-8616-3b6a523e25d2,"1692 Murrumbateman Road, Gundaroo","Canberra Wine District",1,eff3856a-a6da-4879-b06b-4ec9972877bf,"NSW",,-35.050156,149.17081,"1692 Murrumbateman Road, Gundaroo NSW 2620",eff3856a-a6da-4879-b06b-4ec9972877bf,
fad13ff4-7634-4512-9819-6d109b90cd2f,"196 Brooklands Road, Wallaroo, NSW,","Canberra Wine District",1,eff3856a-a6da-4879-b06b-4ec9972877bf,"NSW",,-35.150485,148.982039,"196 Brooklands Road, Wallaroo, Wallaroo NSW",eff3856a-a6da-4879-b06b-4ec9972877bf,
36a7275f-aba3-4c80-bdb3-35414a0b07b6,"92 Meehan St","Canberra Wine District",1,eff3856a-a6da-4879-b06b-4ec9972877bf,"NSW",,-34.84285,148.910852,"92 Meehan St",eff3856a-a6da-4879-b06b-4ec9972877bf,
801e4bcc-dede-4708-bc2b-e324068f81e4,"1 Darkinjung Rd","Central Coast",1,100cdfe1-139d-40a4-be2f-d9f4d518db86,"NSW",,-33.428031,151.219616,"1 Darkinjung Rd, NSW",100cdfe1-139d-40a4-be2f-d9f4d518db86,
1c74fbfd-33d7-4f1a-bce7-8901a38f736c,"36 Webb St","Central Coast",1,100cdfe1-139d-40a4-be2f-d9f4d518db86,"NSW",,-33.439878,151.351621,"36 Webb Street East, Gosford NSW",100cdfe1-139d-40a4-be2f-d9f4d518db86,
8758be2d-e10b-4581-bb68-14ad5d464a2c,"8 Russell Drysdale Street, ​East Gosford","Central Coast",1,100cdfe1-139d-40a4-be2f-d9f4d518db86,"NSW",,-33.438448,151.349353,"8 Russell Drysdale Street, East Gosford, East Gosford NSW",100cdfe1-139d-40a4-be2f-d9f4d518db86,
0908ab4c-21bd-4716-81fb-1ec411c2e95f,"116 Old Pacific Hwy","Coffs Coast",1,e9c5622f-72be-4f6a-b60e-2f51824db567,"NSW",,-30.464361,153.004704,"116 Old Pacific Highway, Raleigh NSW 2454",e9c5622f-72be-4f6a-b60e-2f51824db567,
14690d54-5a4f-4b94-bcaf-1acb6cdfe665,"235 The Mountain Way","Coffs Coast",1,e9c5622f-72be-4f6a-b60e-2f51824db567,"NSW",,-30.229838,153.136636,"235 The Mountain Way, Sapphire Beach NSW 2450",e9c5622f-72be-4f6a-b60e-2f51824db567,
0b612920-0258-4394-bba8-00e983667a9a,"1260 Broke Rd","Hunter Valley",1,dbeebdbb-4238-4a82-b4d6-00323a0f0c44,"NSW",,-32.732789,151.094188,"1260 Broke Road, Broke NSW 2330",dbeebdbb-4238-4a82-b4d6-00323a0f0c44,
594ba9ce-a2e3-4671-8efd-73cf95387ba4,"5/65 John Street Singleton NSW","Hunter Valley",1,dbeebdbb-4238-4a82-b4d6-00323a0f0c44,"NSW",,-32.567322,151.165792,"5/65 John Street, Singleton NSW 2330",,
934336cc-5897-4efd-af4f-d3522fb16c5a,"659 Hermitage Rd","Hunter Valley",1,dbeebdbb-4238-4a82-b4d6-00323a0f0c44,"NSW",,-32.706532,151.261795,"659 Hermitage Road, Pokolbin NSW 2320",dbeebdbb-4238-4a82-b4d6-00323a0f0c44,
d7a8c5e9-581f-4f7e-aa40-3512f8c117e4,"1257 Windeyer Rd","Mudgee",1,7537a040-b426-4e3c-8d27-de9c8315810c,"NSW",,-32.748132,149.544112,"1257 Windeyer Rd",7537a040-b426-4e3c-8d27-de9c8315810c,
39009df0-cae7-4d27-877f-2af54302b654,"15 Borambil Road Quirindi, New South Wales","New England North West",1,f33b21bc-4d11-496d-b1ee-2b802016f018,"NSW",,-31.513433,150.654105,"15 Borambil Road, Quirindi NSW 2343",f33b21bc-4d11-496d-b1ee-2b802016f018,
49e87bc6-397d-47bf-86f5-8cd4083f8f58,"Fossickers Way, Warialda Rail","New England North West",1,f33b21bc-4d11-496d-b1ee-2b802016f018,"NSW",,-29.566223,150.540863,"Fossickers Way, Warialda Rail, Warialda NSW",f33b21bc-4d11-496d-b1ee-2b802016f018,
a437b1c7-d193-46a6-8dd1-fbcfa429c70e,"3 Elizabeth St, Tighes Hill, NSW","Newcastle",1,df8f4bc1-f752-43eb-9f3a-5ade9347ab9a,"NSW",,-32.9076,151.748753,"3 Elizabeth Street, Tighes Hill NSW",df8f4bc1-f752-43eb-9f3a-5ade9347ab9a,
dd0194f2-429c-4899-b9fc-c159a5e9ed2f,"10 Junction St","Northern Rivers",1,996a8c7c-e2ad-4ccf-aed3-bf74a0687ebb,"NSW",,-28.81557,153.27234,"10 Junction Street",996a8c7c-e2ad-4ccf-aed3-bf74a0687ebb,
c098bee0-c215-4bac-abbb-3008142bdd42,"15 Kirkland Court","Northern Rivers",1,996a8c7c-e2ad-4ccf-aed3-bf74a0687ebb,"NSW",,-29.115826,153.432781,"15 Kirkland Court, Evans Head, Evans Head NSW",996a8c7c-e2ad-4ccf-aed3-bf74a0687ebb,
935fb6ec-4303-4c05-9f42-e89eab876edd,"19/21 Broadway","Northern Rivers",1,996a8c7c-e2ad-4ccf-aed3-bf74a0687ebb,"NSW",,-28.434605,153.471246,"19-21 Broadway, Burringbar NSW 2483",996a8c7c-e2ad-4ccf-aed3-bf74a0687ebb,
f1b6292a-fba6-44f6-b6df-4c803c069687,"274 Mount Burrell Rd","Northern Rivers",1,996a8c7c-e2ad-4ccf-aed3-bf74a0687ebb,"NSW",,-28.506338,153.209375,"274 Mount Burrell Road, Mount Burrell NSW 2484",996a8c7c-e2ad-4ccf-aed3-bf74a0687ebb,
90a5e02a-967b-43e7-88c8-c81f050bb73f,"38 Killen Falls Dr","Northern Rivers",1,996a8c7c-e2ad-4ccf-aed3-bf74a0687ebb,"NSW",,-28.770144,153.52284,"38 Killen Falls Drive, Tintenbar NSW 2478",996a8c7c-e2ad-4ccf-aed3-bf74a0687ebb,
0078fe3a-8a19-4d50-b110-1b108d4138b6,"46 Red Ln","Northern Rivers",1,996a8c7c-e2ad-4ccf-aed3-bf74a0687ebb,"NSW",,-28.868947,153.417721,"46 Red Lane, Rous, Rous NSW",996a8c7c-e2ad-4ccf-aed3-bf74a0687ebb,
4641d44d-229e-46fe-a817-96167716aca6,"Hunter Valley, NSW","Northern Rivers",1,996a8c7c-e2ad-4ccf-aed3-bf74a0687ebb,"NSW",,-28.857035,153.568447,,996a8c7c-e2ad-4ccf-aed3-bf74a0687ebb,
010e692f-20f6-4df2-a50e-573c8407b698,"30 Hilton Lane","Orange",1,ada12443-7cd7-432d-9bb5-37a735e47cfc,"NSW",,-33.687969,149.142664,"30 Hilton Lane, Mandurama NSW",ada12443-7cd7-432d-9bb5-37a735e47cfc,
38304084-98a6-4036-bf59-e0a6b6c43767,"2001 Toms Creek Rd","Port Macquarie & Hastings",1,924c9535-5a67-448f-878a-4beb3bae1811,"NSW",,-31.564864,152.411595,"2001 Toms Creek Rd, Toms Creek NSW",924c9535-5a67-448f-878a-4beb3bae1811,
1d366b1f-8563-413b-a49a-8b7c677dcefa,"1218 Nangus Road, Gundagai","Riverina",1,c7a751d3-ef4c-43fc-9660-c5dfbb43178b,"NSW",,-35.04923,148.008287,"1218 Nangus Road, Gundagai, Gundagai NSW 2026",c7a751d3-ef4c-43fc-9660-c5dfbb43178b,
7756829c-4397-463f-ad30-b4bec98aa2e1,"4388 Batlow Rd","Snowy Mountains",1,2b70aaca-98ae-4568-90de-c082f1fb0478,"NSW",,-35.464705,148.147737,"4388 Batlow Rd",2b70aaca-98ae-4568-90de-c082f1fb0478,
b159ec2a-2314-4a29-8911-d743f6bb2a2d,"5661 Kosciuszko Rd","Snowy Mountains",1,2b70aaca-98ae-4568-90de-c082f1fb0478,"NSW",,-36.415788,148.643618,"5661 Kosciuszko Rd",2b70aaca-98ae-4568-90de-c082f1fb0478,
1f8d1534-7739-47c3-a163-a25cc7ef1866,"770 Werralong Rd","Snowy Mountains",1,2b70aaca-98ae-4568-90de-c082f1fb0478,"NSW",,-36.460242,148.729489,"770 Werralong Rd",2b70aaca-98ae-4568-90de-c082f1fb0478,
108449a2-2fa4-4bfb-af5a-64794d3622e7,"127 Jerrara Rd","South Coast NSW",1,a7ab385a-f3b1-4f4a-8119-a45963b58a7f,"NSW",,-34.670063,150.821196,"127 Jerrara Road, Kiama NSW",a7ab385a-f3b1-4f4a-8119-a45963b58a7f,
bfedaca5-bda2-494c-b2f2-61089cef9f1e,"185 Wallaby Hill Rd","South Coast NSW",1,a7ab385a-f3b1-4f4a-8119-a45963b58a7f,"NSW",,-34.669767,150.770608,"185 Wallaby Hill Road",a7ab385a-f3b1-4f4a-8119-a45963b58a7f,
af8b7de1-6642-4b6a-96d4-6e7ff2d61983,"256 Saddleback Mountain Rd","South Coast NSW",1,a7ab385a-f3b1-4f4a-8119-a45963b58a7f,"NSW",,-34.686947,150.820936,"256 Saddleback Mountain Rd",a7ab385a-f3b1-4f4a-8119-a45963b58a7f,
2573e47d-bc03-4246-885e-c4f809a7a0e4,"Kiama, NSW","South Coast NSW",1,a7ab385a-f3b1-4f4a-8119-a45963b58a7f,"NSW",,-34.670546,150.85246,"6 Akuna Street, Kiama, Kiama NSW",a7ab385a-f3b1-4f4a-8119-a45963b58a7f,
c82273da-45b0-4563-a184-7b6ca74e209a,"Unit 3, 51 Rowlins Road GERRINGONG","South Coast NSW",1,a7ab385a-f3b1-4f4a-8119-a45963b58a7f,"NSW",,-34.74221,150.820702,"Unit 3, 51 Rowlins Road, Gerringong NSW",a7ab385a-f3b1-4f4a-8119-a45963b58a7f,
b21fefc5-2ad7-48b6-98cf-e7c6337875b0,"1480 Wombeyan Caves Rd High Range Nr","Southern Highlands",1,116d47dc-29e3-45b8-81af-b13d676ebf9c,"NSW",,-34.360155,150.294847,"1480 Wombeyan Caves Rd High Range Nr, High Range NSW",116d47dc-29e3-45b8-81af-b13d676ebf9c,
09bb2a22-6cd6-49c1-a8d8-862a529e5cbc,"7 Oldbury St","Southern Highlands",1,116d47dc-29e3-45b8-81af-b13d676ebf9c,"NSW",,-34.493806,150.332989,"7 Oldbury Street, Berrima, NSW, 2577, Berrima NSW 2577",116d47dc-29e3-45b8-81af-b13d676ebf9c,
4c095ec4-3611-465c-be95-7742e0fb28db,"96 Osborn Ave  Bundanoon NSW","Southern Highlands",1,116d47dc-29e3-45b8-81af-b13d676ebf9c,"NSW",,-34.657642,150.303485,"96 Osborn Ave, Bundanoon NSW",116d47dc-29e3-45b8-81af-b13d676ebf9c,
1860acf8-d9b8-4838-a1d2-02f9d6148fd8,"1 Mrs Macquaries Rd","Sydney",1,926b0253-8c9a-4734-bc1a-57156fad7006,"NSW",,-33.86658,151.218022,"1 Mrs Macquaries Rd",926b0253-8c9a-4734-bc1a-57156fad7006,
02e1f59a-31d9-4740-a0ee-5560ddb3ce85,"10 Blacks Road, Arcadia","Sydney",1,926b0253-8c9a-4734-bc1a-57156fad7006,"NSW",,-33.631517,151.043772,"10 Blacks Road, Arcadia NSW",926b0253-8c9a-4734-bc1a-57156fad7006,
c5e1b90e-47da-431c-92d5-1b831117a74b,"10 Edwin St, Mortlake NSW","Sydney",1,926b0253-8c9a-4734-bc1a-57156fad7006,"NSW",,-33.841972,151.106833,"10 Edwin St, Mortlake NSW 2137",926b0253-8c9a-4734-bc1a-57156fad7006,
7f3552f6-60bc-41b4-86af-bee922059433,"11 Dent St","Sydney",1,926b0253-8c9a-4734-bc1a-57156fad7006,"NSW","Huskisson",-33.956912,151.205423,"11 Dent Street, Huskisson, NSW",926b0253-8c9a-4734-bc1a-57156fad7006,
4dab3597-07ee-4590-a28a-981be228fda1,"113 - 115 Hall Street, Bondi Beach","Sydney",1,926b0253-8c9a-4734-bc1a-57156fad7006,"NSW",,-33.888555,151.269819,"113 - 115 Hall Street, Bondi Beach NSW 2026",926b0253-8c9a-4734-bc1a-57156fad7006,
a689ad46-5572-4bc1-9d91-ba5e8eb0b8a5,"126 Beach St, Coogee, NSW","Sydney",1,926b0253-8c9a-4734-bc1a-57156fad7006,"NSW",,-33.918391,151.258336,"126 Beach Street, Coogee NSW",926b0253-8c9a-4734-bc1a-57156fad7006,
cd695fce-654d-4a1f-b699-93d1f3c56d5e,"188 King Street Newtown","Sydney",1,926b0253-8c9a-4734-bc1a-57156fad7006,"NSW",,-33.894598,151.182671,,926b0253-8c9a-4734-bc1a-57156fad7006,
50225869-58fd-47b4-ad89-7e87d4705d04,"19 Oxford Street Paddington Sydney","Sydney",1,926b0253-8c9a-4734-bc1a-57156fad7006,"NSW",,-33.882734,151.220031,"19 Oxford Street, Paddington NSW 2021",926b0253-8c9a-4734-bc1a-57156fad7006,
77443c22-1da1-44d2-b515-9f7bf9247239,"196a Denison Rd","Sydney",1,926b0253-8c9a-4734-bc1a-57156fad7006,"NSW",,-33.901299,151.140399,"196a Denison Rd",926b0253-8c9a-4734-bc1a-57156fad7006,
b70ebce6-6b8f-4a43-9f63-9f980d3bba9e,"2 Warraba Rd","Sydney",1,926b0253-8c9a-4734-bc1a-57156fad7006,"NSW",,-33.70243,151.294121,"2 Warraba Road, North Narrabeen, North Narrabeen NSW 2101",926b0253-8c9a-4734-bc1a-57156fad7006,
4390d3a5-f3d4-4a2a-bfa8-e6a87ddc3c45,"2/8A Hughes St","Sydney",1,926b0253-8c9a-4734-bc1a-57156fad7006,"NSW",,-33.871393,151.224353,"2/8A Hughes Street, Potts Point NSW",926b0253-8c9a-4734-bc1a-57156fad7006,
d18005f5-b2c7-432d-9882-91fca8dda391,"20 Narabang Way","Sydney",1,926b0253-8c9a-4734-bc1a-57156fad7006,"NSW","Marrickville",-33.903504,151.164325,"9-11 Shepherd Street, Marrickville NSW 2204",926b0253-8c9a-4734-bc1a-57156fad7006,
b1c6c1d0-7a3e-403e-83d5-538ed0f98d2f,"245 Princes Highway, Kogarah","Sydney",1,926b0253-8c9a-4734-bc1a-57156fad7006,"NSW",,-33.966457,151.136693,"245 Princes Highway, Kogarah, Kogarah NSW",926b0253-8c9a-4734-bc1a-57156fad7006,
2d2bfe57-aa18-4780-a96d-60f15f49401d,"26 Fariola St","Sydney",1,926b0253-8c9a-4734-bc1a-57156fad7006,"NSW","Silverwater",-33.834449,151.051701,"26 Fariola St, Silverwater",926b0253-8c9a-4734-bc1a-57156fad7006,
a9da0a1c-5e90-45da-9f80-e5c35b3f2781,"267 Darlinghurst Road.  Darlinghurst","Sydney",1,926b0253-8c9a-4734-bc1a-57156fad7006,"NSW",,-33.877686,151.220319,"267 Darlinghurst Road, Darlinghurst NSW",926b0253-8c9a-4734-bc1a-57156fad7006,
e331d4a6-eef5-4dbf-82a3-2baf274fa550,"268 Darling Street Balmain NSW 2041","Sydney",1,926b0253-8c9a-4734-bc1a-57156fad7006,"NSW",,-33.857938,151.181737,"268 Darling Street, Balmain NSW 2041",926b0253-8c9a-4734-bc1a-57156fad7006,
e119616e-e34c-4c6c-885d-3781f6a09fed,"277 Johnston St","Sydney",1,926b0253-8c9a-4734-bc1a-57156fad7006,"NSW",,-33.874426,151.174191,"277 Johnston St",926b0253-8c9a-4734-bc1a-57156fad7006,
4e729daa-1878-413f-b0d2-4c9778905983,"300 Botany Road  Alexandria","Sydney",1,926b0253-8c9a-4734-bc1a-57156fad7006,"NSW",,-33.902774,151.201766,"300 Botany Road, Alexandria NSW 2015",926b0253-8c9a-4734-bc1a-57156fad7006,
7930d2f7-2257-4067-921e-2054986932ac,"324 Norton St","Sydney",1,926b0253-8c9a-4734-bc1a-57156fad7006,"NSW",,-33.876081,151.155863,"324 Norton Street",926b0253-8c9a-4734-bc1a-57156fad7006,
1d1b7d06-88a7-409d-84c4-dab44a5658d4,"34 The Avenue, Randwick","Sydney",1,926b0253-8c9a-4734-bc1a-57156fad7006,"NSW",,-33.912393,151.241289,"34 The Avenue, Randwick NSW",926b0253-8c9a-4734-bc1a-57156fad7006,
b4be3bb3-a7da-42b5-83d3-b0a909fd22e7,"34/277 Crown Street, Surry Hills Sydney","Sydney",1,926b0253-8c9a-4734-bc1a-57156fad7006,"NSW",,-33.881319,151.214774,"Shop 34/277 Crown Street, Surry Hills Sydney, 2010, Surry Hills NSW 2010",926b0253-8c9a-4734-bc1a-57156fad7006,
14998f58-9736-482d-bb0a-a8c8460977d1,"41 Mcclymonts Rd","Sydney",1,926b0253-8c9a-4734-bc1a-57156fad7006,"NSW",,-33.618437,150.928552,"41 McClymonts Road",926b0253-8c9a-4734-bc1a-57156fad7006,
8d1d1ff2-8aff-4719-8de6-6b483e8c8205,"431 Crown St","Sydney",1,926b0253-8c9a-4734-bc1a-57156fad7006,"NSW",,-33.886689,151.213434,"431 Crown Street",926b0253-8c9a-4734-bc1a-57156fad7006,
ede400bb-1bc4-4de1-97b4-d8550da05366,"44a Wattle St  Ultimo","Sydney",1,926b0253-8c9a-4734-bc1a-57156fad7006,"NSW",,-33.876632,151.194745,"44a Wattle St, Ultimo NSW",926b0253-8c9a-4734-bc1a-57156fad7006,
c55d8027-5132-4ca7-a510-439eaeecee1e,"45 Jubilee Ave","Sydney",1,926b0253-8c9a-4734-bc1a-57156fad7006,"NSW",,-33.971517,151.126693,"45 Jubilee Ave",926b0253-8c9a-4734-bc1a-57156fad7006,
83350371-0b07-425b-a290-434a6741c3df,"49/59 O'Riordan St, Alexandria","Sydney",1,926b0253-8c9a-4734-bc1a-57156fad7006,"NSW",,-33.90861,151.200053,"49/59 O'Riordan Street, Alexandria NSW",,
9cc2bf57-8ec4-4ee8-bd0f-606a65ce90d4,"511 Kent Street (Entrance on Bathurst St.), Sydney,","Sydney",1,926b0253-8c9a-4734-bc1a-57156fad7006,"NSW",,-33.874355,151.205089,"Lower Ground Floor, 511 Kent Street (Entrance on Bathurst St.), Sydney NSW 2000",926b0253-8c9a-4734-bc1a-57156fad7006,
911f1f9b-1f91-4926-8d9e-6d5180a8f5a8,"6 East Terrace","Sydney",1,926b0253-8c9a-4734-bc1a-57156fad7006,"NSW",,-33.919101,151.039316,"6 East Terrace",926b0253-8c9a-4734-bc1a-57156fad7006,
0e3c3e73-414d-481a-b5b0-564beba3b0d9,"61 Harris Street, Pyrmont","Sydney",1,926b0253-8c9a-4734-bc1a-57156fad7006,"NSW",,-33.86783,151.192621,"61 Harris Street, Pyrmont NSW",926b0253-8c9a-4734-bc1a-57156fad7006,
5cd8676f-ef39-4c42-90e8-b746a1b83e4a,"65 Sussex St","Sydney",1,926b0253-8c9a-4734-bc1a-57156fad7006,"NSW",,-33.867528,151.203229,"65 Sussex Street",,
99c82dda-3778-4752-8736-5e7cec6eeb4d,"7 Manning Street, Kingswood, NSW","Sydney",1,926b0253-8c9a-4734-bc1a-57156fad7006,"NSW",,-33.764093,150.725356,"7 Manning Street, Kingswood NSW",,
91590762-1732-4a39-af58-718bf50fbcdb,"760 Darling St","Sydney",1,926b0253-8c9a-4734-bc1a-57156fad7006,"NSW",,-33.86567,151.167569,"760 Darling St",926b0253-8c9a-4734-bc1a-57156fad7006,
d35f4581-1b33-415d-81bc-a5db44bf5b05,"842 Pacific Highway Gordon NSW 2072 Australia","Sydney",1,926b0253-8c9a-4734-bc1a-57156fad7006,"NSW",,-33.753083,151.150484,"842 Pacific Highway, Gordon NSW 2072",926b0253-8c9a-4734-bc1a-57156fad7006,
00827c26-6b5a-475e-8ba0-9758e97bd2f8,"97 Cronulla St","Sydney",1,926b0253-8c9a-4734-bc1a-57156fad7006,"NSW",,-34.054561,151.15166,"97 Cronulla Street, Cronulla NSW",926b0253-8c9a-4734-bc1a-57156fad7006,
dae64474-394a-4845-99fe-716ac1cf07c7,"99 Victoria Rd","Sydney",1,926b0253-8c9a-4734-bc1a-57156fad7006,"NSW",,-33.879855,151.25609,"99 Victoria Rd",926b0253-8c9a-4734-bc1a-57156fad7006,
529f9e91-bb8d-42c1-a9b6-1ce13ae9e233,"228 Keira St, Wollongong NSW","Wollongong",1,b83e7d59-d351-4b59-9d9b-88c9f76313dc,"NSW",,-34.425481,150.892771,,b83e7d59-d351-4b59-9d9b-88c9f76313dc,
7b67c4f2-8945-41fb-b794-13ed796da9fe,"31 Stonehaven Rd, Stanwell Tops NSW","Wollongong",1,b83e7d59-d351-4b59-9d9b-88c9f76313dc,"NSW",,-34.221546,150.978846,"31 Stonehaven Rd, Stanwell Tops NSW 2508, Stanwell Tops NSW 2508",b83e7d59-d351-4b59-9d9b-88c9f76313dc,
aef739ba-1047-4580-8af0-32535a680108,"4/4 George St, Warilla NSW 2528","Wollongong",1,b83e7d59-d351-4b59-9d9b-88c9f76313dc,"NSW",,-34.552808,150.860814,"4/4 George St, Warilla NSW 2528",b83e7d59-d351-4b59-9d9b-88c9f76313dc,
7341066d-c4ef-4e05-bf62-00daab6bac45,"94 Darkes Road,  Stream Hill NSW 2526","Wollongong",1,b83e7d59-d351-4b59-9d9b-88c9f76313dc,"NSW",,-34.478543,150.794572,"94 Darkes Road, Kembla Grange NSW 2526",b83e7d59-d351-4b59-9d9b-88c9f76313dc,
8970d258-f71e-455a-a37d-984cbd9369fa,"Shop 15B, 110-114 Crown St, Wollongong","Wollongong",1,b83e7d59-d351-4b59-9d9b-88c9f76313dc,"NSW",,-34.425089,150.896643,"Shop 15B, 110-114 Crown Street, Wollongong NSW",b83e7d59-d351-4b59-9d9b-88c9f76313dc,
6502f1b7-6f55-4a72-a9ed-e597d9ee29cd,"1-3 Bridge Street, Muswellbrook NSW","",2,,"NSW",,-32.265178,150.888871,"1-3 Bridge Street, Muswellbrook NSW 2333",,
f57db8af-b945-40b1-bd8a-2c989f7bb4e4,"1800 Glen Davis Rd","",2,,"NSW",,-33.143585,150.123774,"1800 Glen Davis Road",,
8dd344f5-4097-490c-897a-ecac7848871d,"2 Euroka Ave","",2,,"NSW",,-31.075992,152.818272,"2 Euroka Ave",,
768dcf7f-2e42-4eab-8fa6-0a35a603717b,"3105 Remembrance Driveway","",2,,"NSW",,-34.263296,150.574715,"3105 Remembrance Driveway, Bargo NSW",,
43aabcdc-8718-4c69-a685-c3a0f53d347f,"32 Bean Ln","",2,,"NSW",,-33.441601,150.621374,"32 Bean Lane",,
fb1eef55-c8a8-4d6d-bef5-2bd40fea6a3a,"333 Carmichaels Lane Coonabarabran NSW 2357 Australia","",2,,"NSW",,-31.260483,149.211146,"333 Carmichaels Lane, Coonabarabran NSW 2357",,
2acf579c-e1e4-4e02-8c24-5a236b0b35ad,"4 Ocean Street Yamba","",2,,"NSW",,-29.43751,153.366118,"4 Ocean Street, Yamba NSW 2464",,
22f475e1-e6fe-458b-a7ab-547ad3df1753,"40 Seal Rocks Rd","",2,,"NSW",,-32.388794,152.446187,"40 Seal Rocks Road",,
d53de57d-98a2-42db-8561-375b454db983,"424 Moonabung Rd","",2,,"NSW",,-32.541734,151.50004,"424 Moonabung Rd, Vacy NSW",,
1662115f-8e56-4385-8406-81f3224efc17,"43 Edward St","",2,,"NSW",,-34.082621,150.57176,"43 Edward Street, The Oaks NSW 2570",,
f2b2e684-f2bc-4066-b4af-1e457d6f613d,"8 Regatta Ave Ballina NSW Australia","",2,,"NSW",,-32.193007,152.519523,"8 Regatta Avenue, Ballina NSW Australia, Ballina NSW",,
bddab12d-6105-4f0d-80af-64d9237121b6,"824 Fosterton Rd","",2,,"NSW",,-32.332696,151.745238,"824 Fosterton Rd, Dungog NSW",,
9390f68d-3f78-4348-b71a-9584e97d9ca8,"969 Bombah Point Rd","",2,,"NSW",,-32.486189,152.27042,"969 Bombah Point Rd, NSW",,
6e13b9a5-b562-4433-b44a-1992c613fb3a,"13 Elder St","Alice Springs & Red Centre",1,5326d8c6-b860-40d2-87f6-3f31842ad505,"NT",,-23.698803,133.870399,"13 Elder St",5326d8c6-b860-40d2-87f6-3f31842ad505,
f155b90e-d7ab-4b84-9497-105f4d155db1,"27 Tuncks Rd","Alice Springs & Red Centre",1,5326d8c6-b860-40d2-87f6-3f31842ad505,"NT",,-23.70633,133.88476,"27 Tuncks Road",5326d8c6-b860-40d2-87f6-3f31842ad505,
0aa51960-efcf-4077-bb6c-6a91ad6dc553,"4/11 Todd St","Alice Springs & Red Centre",1,5326d8c6-b860-40d2-87f6-3f31842ad505,"NT","Alice Springs",-23.700923,133.882216,"4/11 Todd Street, Alice Springs NT 0870",5326d8c6-b860-40d2-87f6-3f31842ad505,
2d76486f-46b8-4f4a-97a1-9f61541df9f2,"45 Todd Mall","Alice Springs & Red Centre",1,5326d8c6-b860-40d2-87f6-3f31842ad505,"NT",,-23.699332,133.883241,"45 Todd Mall",5326d8c6-b860-40d2-87f6-3f31842ad505,
ddcff870-cdc6-4fe7-aa78-725371e4b314,"47 Raberaba Cct, Hermannsburg NT 0872","Alice Springs & Red Centre",1,5326d8c6-b860-40d2-87f6-3f31842ad505,"NT",,-23.944277,132.77486,"47 Raberaba Cct, Hermannsburg NT 0872, Hermannsburg NT 0872",5326d8c6-b860-40d2-87f6-3f31842ad505,
ff9df19c-657a-46f5-90b6-17e3a076fc1b,"19 Kitchener Dr","Darwin & Top End",1,13ce91e7-efed-493e-9c0a-1e7fa8b90993,"NT","Darwin",-12.467985,130.846274,"19 Kitchener Dr, Darwin NT",13ce91e7-efed-493e-9c0a-1e7fa8b90993,
a252fc34-6b0b-4ed4-958b-881706171df5,"32 Mitchell Street, Darwin City NT","Darwin & Top End",1,13ce91e7-efed-493e-9c0a-1e7fa8b90993,"NT","Darwin City",-12.464373,130.8416,"32 Mitchell Street, Darwin City NT",,
ca68feab-4d3c-46b4-b4ce-6501b5484a1a,"4 Burnett Pl","Darwin & Top End",1,13ce91e7-efed-493e-9c0a-1e7fa8b90993,"NT","Darwin",-12.450716,130.829707,"4 Burnett Place, Darwin NT",13ce91e7-efed-493e-9c0a-1e7fa8b90993,
765e8bdb-c594-4899-ad70-badc646804f6,"4295 Fog Bay Rd","Darwin & Top End",1,13ce91e7-efed-493e-9c0a-1e7fa8b90993,"NT",,-12.850449,130.492552,"4295 Fog Bay Rd",13ce91e7-efed-493e-9c0a-1e7fa8b90993,
cd7d0b97-951a-4d6e-9086-89fdd2820b0b,"48/12 Charlton Ct","Darwin & Top End",1,13ce91e7-efed-493e-9c0a-1e7fa8b90993,"NT","12 Charlton Court",-12.431563,130.8589,"Shop 48, 12 Charlton Court",13ce91e7-efed-493e-9c0a-1e7fa8b90993,
8cea432d-7bba-4470-84d4-fb263b01bc14,"6 The Blvd","Darwin & Top End",1,13ce91e7-efed-493e-9c0a-1e7fa8b90993,"NT","Palmerston",-12.479877,130.98448,"6 The Boulevard, Goyder Square, Palmerston NT",13ce91e7-efed-493e-9c0a-1e7fa8b90993,
a3656448-43a7-4a1d-a7c3-e7c8ab6c024b,"7 Kitchener Dr","Darwin & Top End",1,13ce91e7-efed-493e-9c0a-1e7fa8b90993,"NT","Darwin",-12.46636,130.847014,"7 Kitchener Dr, Darwin Waterfront, Darwin NT",13ce91e7-efed-493e-9c0a-1e7fa8b90993,
7ac3ed63-9038-4757-b684-8df9a0c988d0,"Timor Sea, Tiwi Islands NT","Darwin & Top End",1,13ce91e7-efed-493e-9c0a-1e7fa8b90993,"NT",,-11.5153,130.78,,13ce91e7-efed-493e-9c0a-1e7fa8b90993,
2407a04a-d75a-4a49-9ba6-f758a0261c3c,"20 Christie Rd","",2,,"NT",,-14.443354,132.272875,"20 Christie Road",,b6df17d1-9760-4a1b-bdb4-6c520eccce55
b47e4e93-31af-4c22-824c-b6b8c16aa0e5,"Noosa, QLD","Adelaide",1,09c0c80f-4213-40b5-9ecd-df5f0f557f2e,"QLD",,-35.212787,138.482248,,09c0c80f-4213-40b5-9ecd-df5f0f557f2e,
055ba698-c3c3-4afc-ab59-37ff0ad755a5,"1/17 Chrome Street Salisbury","Brisbane",1,361cd83c-0c7a-4725-b7d5-b4982ee0ec07,"QLD",,-27.543711,153.029097,"1/17 Chrome Street Salisbury, Salisbury",361cd83c-0c7a-4725-b7d5-b4982ee0ec07,
a43cb4c0-3a26-4664-9a30-33028c7a9789,"135 James St","Brisbane",1,361cd83c-0c7a-4725-b7d5-b4982ee0ec07,"QLD",,-27.460347,153.044106,"135 James Street, New Farm QLD",361cd83c-0c7a-4725-b7d5-b4982ee0ec07,
aa0e89fc-5298-4ff0-b7f1-e9868a11debb,"147E Alice Street, Brisbane City","Brisbane",1,361cd83c-0c7a-4725-b7d5-b4982ee0ec07,"QLD",,-27.472335,153.03125,"147E Alice Street",361cd83c-0c7a-4725-b7d5-b4982ee0ec07,
750e7f42-295b-4607-93f1-91af595d51ce,"152 Mount Coot-Tha Rd","Brisbane",1,361cd83c-0c7a-4725-b7d5-b4982ee0ec07,"QLD",,-27.475517,152.976041,"152 Mount Coot-tha Road, Mt Coot-tha QLD 4066",361cd83c-0c7a-4725-b7d5-b4982ee0ec07,
1589c123-d211-4a65-a6b3-0957b18ef856,"167 Latrobe Terrace, Paddington, QLD, 4064","Brisbane",1,361cd83c-0c7a-4725-b7d5-b4982ee0ec07,"QLD",,-27.458115,152.994762,"167 Latrobe Terrace, Paddington, QLD, 4064",361cd83c-0c7a-4725-b7d5-b4982ee0ec07,
2152b744-3a02-49af-bb54-1fca0c1cb560,"218 Given Ter","Brisbane",1,361cd83c-0c7a-4725-b7d5-b4982ee0ec07,"QLD",,-27.461796,153.005296,"218 Given Tce",361cd83c-0c7a-4725-b7d5-b4982ee0ec07,
bc55d017-533f-432b-99c7-e7560e0b9b57,"25 Anstey St","Brisbane",1,361cd83c-0c7a-4725-b7d5-b4982ee0ec07,"QLD",,-27.430504,153.042325,"25 Anstey St",361cd83c-0c7a-4725-b7d5-b4982ee0ec07,
bf1d4f08-7e2e-488e-aecb-fb06c4464a0f,"25 Leigh St","Brisbane",1,361cd83c-0c7a-4725-b7d5-b4982ee0ec07,"QLD",,-27.498653,153.06025,"25 Leigh St",361cd83c-0c7a-4725-b7d5-b4982ee0ec07,
27e6a0f7-9c15-46d1-bfd8-c5c0b68f066b,"29 River Terrace, Kangaroo Point","Brisbane",1,361cd83c-0c7a-4725-b7d5-b4982ee0ec07,"QLD",,-27.476199,153.034596,"29 River Terrace",361cd83c-0c7a-4725-b7d5-b4982ee0ec07,
e14cee5d-7b8d-4c1d-a24d-30161f2e6ee8,"3 ELLISON ROAD GEEBUNG","Brisbane",1,361cd83c-0c7a-4725-b7d5-b4982ee0ec07,"QLD",,-27.376888,153.054756,"3 Ellison Road",361cd83c-0c7a-4725-b7d5-b4982ee0ec07,
d8ea5523-524c-4a14-b534-8739f4c25ff6,"313 Logan Rd","Brisbane",1,361cd83c-0c7a-4725-b7d5-b4982ee0ec07,"QLD","Stones Corner",-27.498835,153.044315,"313 Logan Road, Stones Corner, Stones Corner QLD 4120",361cd83c-0c7a-4725-b7d5-b4982ee0ec07,
cba8a006-d1f8-4932-9867-7c7ce6aae805,"360 Logan Rd","Brisbane",1,361cd83c-0c7a-4725-b7d5-b4982ee0ec07,"QLD",,-27.499249,153.045305,"360 Logan Rd",361cd83c-0c7a-4725-b7d5-b4982ee0ec07,
1038b011-0810-4a24-8785-af13fa2f6768,"37 Balfour St","Brisbane",1,361cd83c-0c7a-4725-b7d5-b4982ee0ec07,"QLD",,-27.463809,153.040346,,361cd83c-0c7a-4725-b7d5-b4982ee0ec07,
3a226fc3-ed46-4cf8-8c26-b9123d976fdd,"399 Queen St","Brisbane",1,361cd83c-0c7a-4725-b7d5-b4982ee0ec07,"QLD","Brisbane",-27.465438,153.031088,"399 Queen Street, Brisbane QLD 4000",361cd83c-0c7a-4725-b7d5-b4982ee0ec07,
15499c39-e362-4140-8a68-e6fa12ffeafe,"5 Overend Street, East Brisbane QLD, 4169","Brisbane",1,361cd83c-0c7a-4725-b7d5-b4982ee0ec07,"QLD",,-27.488264,153.039882,"5 Overend Street",361cd83c-0c7a-4725-b7d5-b4982ee0ec07,
bc967b6c-cf0f-4e8f-8b62-eaa6fd0af6b0,"545 Old Cleveland Rd, Camp Hill","Brisbane",1,361cd83c-0c7a-4725-b7d5-b4982ee0ec07,"QLD",,-27.492951,153.074311,,361cd83c-0c7a-4725-b7d5-b4982ee0ec07,
9f9408f9-58b3-4675-bbc5-30eaaf8f8c59,"63 Melbourne Street, Rocklea QLD 4106","Brisbane",1,361cd83c-0c7a-4725-b7d5-b4982ee0ec07,"QLD","Rocklea",-27.539164,153.009622,"63 Melbourne Street, Rocklea QLD 4106",361cd83c-0c7a-4725-b7d5-b4982ee0ec07,
35abad33-ee8f-49fa-9e8b-9706490027d2,"707 Ann St","Brisbane",1,361cd83c-0c7a-4725-b7d5-b4982ee0ec07,"QLD",,-27.457876,153.035966,"707 Ann Street, Fortitude Valley QLD",361cd83c-0c7a-4725-b7d5-b4982ee0ec07,
0e08d293-28d3-4175-b4bc-949a287b790e,"72 Heal St","Brisbane",1,361cd83c-0c7a-4725-b7d5-b4982ee0ec07,"QLD",,-27.46239,153.04262,"72 Heal Street, New Farm QLD",361cd83c-0c7a-4725-b7d5-b4982ee0ec07,
e2fbb5ab-c629-4e56-b6b0-bb3165acde99,"900 Brunswick St","Brisbane",1,361cd83c-0c7a-4725-b7d5-b4982ee0ec07,"QLD",,-27.467156,153.047071,"900 Brunswick Street",361cd83c-0c7a-4725-b7d5-b4982ee0ec07,
f22a0640-cd0e-4a99-bf05-18d5477534f0,"92A Arthur Ter","Brisbane",1,361cd83c-0c7a-4725-b7d5-b4982ee0ec07,"QLD",,-27.451692,152.997343,"92A Arthur Terrace",361cd83c-0c7a-4725-b7d5-b4982ee0ec07,
05d5c47c-a1c5-4bf0-8b5e-59a00906472d,"Shop 1 / 113 Oxley Station Road Oxley, Brisbane","Brisbane",1,361cd83c-0c7a-4725-b7d5-b4982ee0ec07,"QLD",,-27.553993,152.975113,"Shop 1 / 113 Oxley Station Road",361cd83c-0c7a-4725-b7d5-b4982ee0ec07,
46704797-4088-4841-af13-366ba79e2270,"Shop 3, The Mall, 3/222 Stratton Terrace, Manly QLD","Brisbane",1,361cd83c-0c7a-4725-b7d5-b4982ee0ec07,"QLD",,-27.454389,153.185624,"Shop 3, The Mall, 50 Cambridge Parade, Manly QLD 4179",361cd83c-0c7a-4725-b7d5-b4982ee0ec07,
75dd05fd-ba6c-4339-b11b-e71795a11612,"18A Eacham CL, Yungaburra, AU 4884","Cairns & Tropical North",1,2f404040-9f49-4a2f-a36b-190dce079f6e,"QLD",,-17.288466,145.635489,"18A Eacham CL, Yungaburra QLD 4884",2f404040-9f49-4a2f-a36b-190dce079f6e,
ae7382b2-7908-4a8f-85b1-27e6ecda4777,"247 Hogan Rd","Cairns & Tropical North",1,2f404040-9f49-4a2f-a36b-190dce079f6e,"QLD",,-17.407724,145.611456,"247 Hogan Rd, Tarzali QLD 4885",2f404040-9f49-4a2f-a36b-190dce079f6e,
86cacf5a-f04b-40ab-a98f-1f3009418d34,"324 Land Road, Malanda","Cairns & Tropical North",1,2f404040-9f49-4a2f-a36b-190dce079f6e,"QLD",,-17.314529,145.705161,"324 Land Road, Malanda QLD",2f404040-9f49-4a2f-a36b-190dce079f6e,
05e9cf52-5ab4-44a0-9206-5632bbce22ce,"345 Byrnes Street, Mareeba","Cairns & Tropical North",1,2f404040-9f49-4a2f-a36b-190dce079f6e,"QLD",,-17.010515,145.425528,"345 Byrnes Street, Mareeba QLD",2f404040-9f49-4a2f-a36b-190dce079f6e,
1f42873b-6d12-4c94-8633-777aeff14c12,"70 Hunt Road, Peeramon","Cairns & Tropical North",1,2f404040-9f49-4a2f-a36b-190dce079f6e,"QLD",,-17.301363,145.582431,"70 Hunt Road, Peeramon, Peeramon QLD 4884",2f404040-9f49-4a2f-a36b-190dce079f6e,
f89942be-9f5c-4a10-b551-eaf81dab7e82,"216 Arnolds Rd, Byfield QLD 4703","Capricorn Coast",1,da54734b-b5e0-4ab1-a011-ecbd163776c5,"QLD",,-22.858944,150.641112,"216 Arnolds Rd, Byfield, Byfield QLD 4703",da54734b-b5e0-4ab1-a011-ecbd163776c5,
c8ec22be-e03b-4663-be09-99c6d8778f45,"9790 Cunningham Hwy, Tregony","Granite Belt",1,28389585-efc5-404f-8de0-3bdc9d676e23,"QLD",,-28.059431,152.298456,"9790 Cunningham Highway",28389585-efc5-404f-8de0-3bdc9d676e23,
f6f0ccda-1a19-40b5-b6dc-9da2bef9efb9,"1531 Beechmont Rd, Beechmont","Scenic Rim",1,63977d76-7e1e-4ee7-bffd-6fee81081522,"QLD",,-28.107961,153.217581,"1531 Beechmont Rd",63977d76-7e1e-4ee7-bffd-6fee81081522,
4fa14d4f-be38-4a5e-aa04-eb8014a5736a,"25 Forsythia Dr","Scenic Rim",1,63977d76-7e1e-4ee7-bffd-6fee81081522,"QLD",,-27.913735,153.203064,"25 Forsythia Drive, Tamborine Mountain QLD",63977d76-7e1e-4ee7-bffd-6fee81081522,
ccd23158-9a44-49b0-af05-8c594dc7e82f,"298 Cainbable Creek Rd, Cainbable Queensland","Scenic Rim",1,63977d76-7e1e-4ee7-bffd-6fee81081522,"QLD","Cainbable",-28.098862,153.076125,"298 Cainbable Creek Road, Cainbable, 4285",63977d76-7e1e-4ee7-bffd-6fee81081522,
24f2a71b-a71a-4413-ac7a-d3a5edc07ec4,"3009 Christmas Creek Rd, Lamington Queensland","Scenic Rim",1,63977d76-7e1e-4ee7-bffd-6fee81081522,"QLD",,-28.288888,153.056869,"3009 Christmas Creek Rd",63977d76-7e1e-4ee7-bffd-6fee81081522,
61a2923c-6cdf-43e8-807a-4b9f834b328a,"312 Boyland Rd","Scenic Rim",1,63977d76-7e1e-4ee7-bffd-6fee81081522,"QLD","Boyland",-27.953008,153.117194,"312 Boyland Rd, Boyland",63977d76-7e1e-4ee7-bffd-6fee81081522,
d4ddea9c-8c6e-4796-aab2-6dce33a34f00,"3196 Christmas Creek Rd. Lamington","Scenic Rim",1,63977d76-7e1e-4ee7-bffd-6fee81081522,"QLD",,-28.295072,153.072126,"3196 Christmas Creek Rd",63977d76-7e1e-4ee7-bffd-6fee81081522,
3a4ed325-a366-4f24-9a36-8d4318c18a84,"3338 Kerry Rd","Scenic Rim",1,63977d76-7e1e-4ee7-bffd-6fee81081522,"QLD",,-28.250134,153.0704,"3338 Kerry Rd, QLD",63977d76-7e1e-4ee7-bffd-6fee81081522,
fda434b9-c29a-40d7-b8cb-737c4d45c60b,"726 Green Hills Rd","Scenic Rim",1,63977d76-7e1e-4ee7-bffd-6fee81081522,"QLD",,-28.06151,152.771011,"726 Green Hills Rd, Cannon Creek QLD",63977d76-7e1e-4ee7-bffd-6fee81081522,
34a97730-fad8-43e2-be43-cd8dfeceb957,"97 Cedar Glen Rd","Scenic Rim",1,63977d76-7e1e-4ee7-bffd-6fee81081522,"QLD",,-28.253909,153.078096,"97 Cedar Glen Rd, QLD",63977d76-7e1e-4ee7-bffd-6fee81081522,
c88f1415-74f6-48f5-b606-0fc075526088,"99 Alpine Terrace  Tamborine Mountain","Scenic Rim",1,63977d76-7e1e-4ee7-bffd-6fee81081522,"QLD",,-27.96805,153.195897,"99 Alpine Terrace, Tamborine Mountain QLD",63977d76-7e1e-4ee7-bffd-6fee81081522,
86321507-4b2f-4ab8-9783-5e778e2e9dbc,"2/8 Venture Drive, Noosaville QLD","Sunshine Coast",1,7d1e76ce-c30b-4118-a0c8-ad18e14640da,"QLD",,-26.408004,153.046283,"2/8 Venture Drive, Noosaville QLD",7d1e76ce-c30b-4118-a0c8-ad18e14640da,
46efe001-19f4-4035-8247-806c96e7284b,"Shop 10, Noosa Homemaker Centre, Thomas street, Noosaville, QLD","Sunshine Coast",1,7d1e76ce-c30b-4118-a0c8-ad18e14640da,"QLD",,-26.399863,153.061964,"Shop 10, Noosa Homemaker Centre, Thomas Street, Noosaville QLD",7d1e76ce-c30b-4118-a0c8-ad18e14640da,
4b3da4fc-0936-4cd3-8cd5-3a2d72600b65,"1-41 Pioneer Road, Yandina QLD","Sunshine Coast Hinterland",1,c2749751-d379-4fa9-ad4d-efc077f8173a,"QLD",,-26.556121,152.960589,"1-41 Pioneer Road, Yandina QLD",c2749751-d379-4fa9-ad4d-efc077f8173a,
f0e6e951-2aa0-4db7-b9cc-1ed91479e6a7,"115 Wust Rd","Sunshine Coast Hinterland",1,c2749751-d379-4fa9-ad4d-efc077f8173a,"QLD",,-26.437586,152.999261,"115 Wust Rd, Doonan QLD 4562",c2749751-d379-4fa9-ad4d-efc077f8173a,
e0270d72-0dcd-4fc5-ac61-cce5eb6a1277,"191 Old Peachester Road, Beerwah","Sunshine Coast Hinterland",1,c2749751-d379-4fa9-ad4d-efc077f8173a,"QLD","Beerwah",-26.852066,152.903596,"191 Old Peachester Road, Beerwah",c2749751-d379-4fa9-ad4d-efc077f8173a,
0e970581-f82f-4573-a52c-712f4ba45c18,"198 Barrs Road, Glass House Mountains","Sunshine Coast Hinterland",1,c2749751-d379-4fa9-ad4d-efc077f8173a,"QLD",,-26.921236,152.940303,"198 Barrs Road",c2749751-d379-4fa9-ad4d-efc077f8173a,
f6a4010c-f1f5-4935-9537-71503486533c,"20 Kondalilla Falls Rd","Sunshine Coast Hinterland",1,c2749751-d379-4fa9-ad4d-efc077f8173a,"QLD",,-26.672516,152.87695,"20 Kondalilla Falls Rd, Montville QLD",c2749751-d379-4fa9-ad4d-efc077f8173a,
fa5a000a-d249-4c71-b32d-d08c52c1114c,"233 Maleny Stanley River Rd","Sunshine Coast Hinterland",1,c2749751-d379-4fa9-ad4d-efc077f8173a,"QLD",,-26.764473,152.845181,"233 Maleny Stanley River Rd, Maleny QLD",c2749751-d379-4fa9-ad4d-efc077f8173a,
ee392d76-35ea-4b3d-a7df-600ef61bf750,"316 Brandenburg Rd","Sunshine Coast Hinterland",1,c2749751-d379-4fa9-ad4d-efc077f8173a,"QLD",,-26.771633,152.931471,"316 Brandenburg Rd, Maleny QLD",c2749751-d379-4fa9-ad4d-efc077f8173a,
af7d154e-ebfc-4317-980f-55266dc3009e,"318 Western Ave","Sunshine Coast Hinterland",1,c2749751-d379-4fa9-ad4d-efc077f8173a,"QLD",,-26.681884,152.866613,"318 Western Avenue, Montville QLD",c2749751-d379-4fa9-ad4d-efc077f8173a,
221efe5a-87ae-4ce9-8c16-905eb2f61bce,"35 Rose Gum Ln, Maleny QLD","Sunshine Coast Hinterland",1,c2749751-d379-4fa9-ad4d-efc077f8173a,"QLD",,-26.688337,152.827073,"35 Rose Gum Lane, Maleny, Maleny QLD 4552",c2749751-d379-4fa9-ad4d-efc077f8173a,
ad2bb055-7ad6-4cc8-ba49-6e52a4554e3b,"36 Carruthers Rd","Sunshine Coast Hinterland",1,c2749751-d379-4fa9-ad4d-efc077f8173a,"QLD",,-26.661833,152.924436,"36 Carruthers Rd, Montville QLD",c2749751-d379-4fa9-ad4d-efc077f8173a,
554c8219-95ef-43b2-86a4-1f1ddb79ac71,"396 Western Ave, Montville","Sunshine Coast Hinterland",1,c2749751-d379-4fa9-ad4d-efc077f8173a,"QLD",,-26.682058,152.858194,"396 Western Ave, Montville, Montville QLD",c2749751-d379-4fa9-ad4d-efc077f8173a,
00cfe985-4b17-417c-9125-d7913f0da087,"43 McCarthy Road, Maleny","Sunshine Coast Hinterland",1,c2749751-d379-4fa9-ad4d-efc077f8173a,"QLD",,-26.770674,152.861222,"43 McCarthy Road, Maleny QLD",c2749751-d379-4fa9-ad4d-efc077f8173a,
597dd36d-90c1-4bc7-9426-c75f019b1172,"5/4-6 Little Main St","Sunshine Coast Hinterland",1,c2749751-d379-4fa9-ad4d-efc077f8173a,"QLD",,-26.686906,152.958775,"Shop 5, 4-6 Little Main Street, Palmwoods QLD 4555",c2749751-d379-4fa9-ad4d-efc077f8173a,
e3b3d54a-ffa0-4607-b4e9-65c4d0b0f0a4,"78 Narrows Road, Montville, Queensland","Sunshine Coast Hinterland",1,c2749751-d379-4fa9-ad4d-efc077f8173a,"QLD",,-26.688291,152.865382,"78 Narrows Road, Montville, Queensland, Montville QLD",c2749751-d379-4fa9-ad4d-efc077f8173a,
6cee8d69-f2f6-4c6e-ba65-7f5dd34a3488,"88 Irwin Road, Beerwah","Sunshine Coast Hinterland",1,c2749751-d379-4fa9-ad4d-efc077f8173a,"QLD",,-26.840008,152.967414,"88 Irwin Road",,
1e22157f-2d2a-452f-879a-737c0aae3400,"Shop 3, 25 Maple Street Maleny QLD","Sunshine Coast Hinterland",1,c2749751-d379-4fa9-ad4d-efc077f8173a,"QLD",,-26.758932,152.851228,"Shop 3, 25 Maple Street, Maleny QLD 4551",c2749751-d379-4fa9-ad4d-efc077f8173a,
81d09830-6c57-4651-a6ae-97bdcc3d5b79,"Visit us at 80 Howard Street, Nambour","Sunshine Coast Hinterland",1,c2749751-d379-4fa9-ad4d-efc077f8173a,"QLD",,-26.627275,152.962046,"80 Howard Street, Nambour QLD",c2749751-d379-4fa9-ad4d-efc077f8173a,
74d1206a-8346-4fc1-ab8a-91fb52c9801e,"40 Flemming St","Toowoomba & Darling Downs",1,63c061c4-8616-4391-a97e-a0086a9f41e8,"QLD",,-28.856259,151.170092,"40 Flemming Street, Texas QLD",63c061c4-8616-4391-a97e-a0086a9f41e8,
2f82c811-6f16-4ebe-8798-6cb76a771a49,"Crn New England Highway & Oxford Street, Crows Nest QLD","Toowoomba & Darling Downs",1,63c061c4-8616-4391-a97e-a0086a9f41e8,"QLD",,-27.274731,152.054411,"Corner New England Highway & Oxford Street, Crows Nest QLD",63c061c4-8616-4391-a97e-a0086a9f41e8,
e6a65980-e7c1-43ac-93e2-fbb75c1e4935,"42-68 Palmer St South Townsville QLD 4810","Townsville",1,8312dae6-78f8-481c-ab38-3701dfd36fc0,"QLD",,-19.259287,146.823538,"42-68 Palmer St South Townsville QLD 4810",8312dae6-78f8-481c-ab38-3701dfd36fc0,
94edd075-4cee-4fdc-8c30-03abce3f6aae,"1 Seaworld Dr","",2,,"QLD",,-27.957012,153.425315,"1 Seaworld Dr, QLD",,
c8ce63cf-6d8b-410f-8895-124ea8c34bba,"13 Aranda Street, Slacks Creek","",2,,"QLD",,-27.630408,153.128408,"13 Aranda Street, Slacks Creek QLD",,
719f2a2e-61a0-42ed-89d3-a310431897bb,"192 Syndicate Rd, allebudgera Valley Queensland","",2,,"QLD",,-28.17268,153.394006,"192 Syndicate Rd",,
b1c3617a-ba14-4bb9-8d7d-1a6840e9ad1a,"2/623 Main Rd","",2,,"QLD","Wellington Point",-27.503731,153.237672,"625 Main Road, Wellington Point",,
b671ada0-e130-4344-ad9b-12893e85c4ae,"2017 Gold Coast Hwy","",2,,"QLD",,-28.074308,153.44516,"2017 Gold Coast Highway, Miami QLD 4220",,
965d5d93-c344-4373-8b38-6fd65e301621,"21 Station St","",2,,"QLD","Samford",-28.139733,153.473255,"21 Station Street, Samford",,
15769adf-0a9a-4b39-8b58-09d307315a9d,"22 Ironbark Rd","",2,,"QLD",,-27.567523,152.69086,"22 Ironbark Rd, Daintree QLD",,
ba2a705a-caa9-47ed-9ec9-ceee5b822c2c,"26 Gray Street, New Farm","",2,,"QLD",,-27.296135,152.961434,"26 Gray Street",,
c7888cba-1eb5-4b62-8b61-1cdee8f74443,"28 Tomewin St","",2,,"QLD",,-28.137394,153.485253,"28 Tomewin Street, Currumbin QLD",,
8b7da7d0-962b-462e-8fa5-8aad39f55a87,"3-15 Jackman Street Southport Qld.","",2,,"QLD",,-27.96665,153.404322,"3-15 Jackman Street, Southport QLD",,
fd814973-bf4f-4d7c-bc21-132d6f883e2c,"33 Ballow Street, Amity, Stradbroke Island","",2,,"QLD",,-27.395299,153.43964,"33 Ballow Street, Amity QLD",,
c5cec9f2-9e9e-4998-92d1-4864290ba192,"4 Charles Ave Broadbeach, Gold Coast QLD","",2,,"QLD",,-28.030167,153.432791,"4 Charles Ave, Broadbeach QLD",,
65ce8738-cb16-47d7-826d-9ab597fdf8f9,"4 Elizabeth St","",2,,"QLD",,-27.843036,153.32734,"4 Elizabeth Street",,
76e9558b-4ead-41e2-bce8-42b054a9136d,"60 Smith St","",2,,"QLD",,-27.534126,153.259868,"60 Smith Street",,
2f80cca3-b225-4713-982f-d478c62c5a18,"65 Railway St","",2,,"QLD",,-28.079545,153.364419,"65 Railway Street, Mudgeeraba QLD",,
3aa4f078-b056-42a5-9680-526a9c27ee08,"Lot 1 Nelia Bunda Rd Nelia, 4823 Queensland","",2,,"QLD",,-20.59537,142.220197,"Lot 1 Nelia Bunda Rd, Nelia, Nelia QLD 4823",,
f06377d2-f142-4178-8237-f67fe0aafc3d,"Saltwater Creek Rd, Palm Groves, Queensland","",2,,"QLD",,-20.380006,148.681468,"637 Saltwater Creek Rd, Palm Grove QLD",,
3821e429-afc5-4429-a787-a3e7c58d4e36,"10 College Rd","Adelaide",1,09c0c80f-4213-40b5-9ecd-df5f0f557f2e,"SA",,-34.918721,138.620044,"10 College Rd",09c0c80f-4213-40b5-9ecd-df5f0f557f2e,
9bddf09f-6374-459a-8dd8-8a26f14ca1b0,"1016 One Tree Hill Rd","Adelaide",1,09c0c80f-4213-40b5-9ecd-df5f0f557f2e,"SA",,-34.719356,138.780559,"1016 One Tree Hill Rd, SA",09c0c80f-4213-40b5-9ecd-df5f0f557f2e,
1a0a2234-991a-4c41-a798-193eb0876e77,"11 Gawler St","Adelaide",1,09c0c80f-4213-40b5-9ecd-df5f0f557f2e,"SA",,-35.034205,138.537968,"11 Gawler Street",09c0c80f-4213-40b5-9ecd-df5f0f557f2e,
de813c21-ca54-42d3-a033-bd8f8660114e,"11 Martin Rd","Adelaide",1,09c0c80f-4213-40b5-9ecd-df5f0f557f2e,"SA","Whites Valley",-35.28121,138.548373,"11 Martin Road, Whites Valley SA 5172",09c0c80f-4213-40b5-9ecd-df5f0f557f2e,
e53bffa7-8fea-452f-ac8c-823ba45f8778,"128 Jetty Rd","Adelaide",1,09c0c80f-4213-40b5-9ecd-df5f0f557f2e,"SA",,-34.980366,138.517486,"128 Jetty Road",09c0c80f-4213-40b5-9ecd-df5f0f557f2e,
c4b664d6-87dd-4016-9fe2-07ba0c651876,"162 Flaxley Rd","Adelaide",1,09c0c80f-4213-40b5-9ecd-df5f0f557f2e,"SA","Adelaide Hills",-35.084715,138.84601,"162 Flaxley Road, Adelaide Hills SA",09c0c80f-4213-40b5-9ecd-df5f0f557f2e,
bd8dc4cc-6bab-479b-a3c8-c0c1ef46b4ab,"17 Francis Rd","Adelaide",1,09c0c80f-4213-40b5-9ecd-df5f0f557f2e,"SA","Wingfield",-34.846438,138.545678,"17 Francis Road, Wingfield SA 5013",09c0c80f-4213-40b5-9ecd-df5f0f557f2e,
fcd6ef04-87a8-428b-a323-eea4f397f534,"2/74 Baden Terrace","Adelaide",1,09c0c80f-4213-40b5-9ecd-df5f0f557f2e,"SA",,-35.11793,138.481471,"74 Baden Terrace",09c0c80f-4213-40b5-9ecd-df5f0f557f2e,
ca8f37c9-575c-4beb-8e9b-82353d969051,"233 Morphett Street, Adelaide","Adelaide",1,09c0c80f-4213-40b5-9ecd-df5f0f557f2e,"SA",,-34.928612,138.593563,"233 Morphett Street",09c0c80f-4213-40b5-9ecd-df5f0f557f2e,
f828e948-3055-4a04-887d-06b839e4551a,"253 Grange Rd","Adelaide",1,09c0c80f-4213-40b5-9ecd-df5f0f557f2e,"SA",,-34.904875,138.5379,"253 Grange Rd",09c0c80f-4213-40b5-9ecd-df5f0f557f2e,
be206f10-3c4a-4808-8e38-4bd8a7574007,"26-28 Kangarilla Rd, McLaren Vale","Adelaide",1,09c0c80f-4213-40b5-9ecd-df5f0f557f2e,"SA",,-35.148577,138.661024,"26-28 Kangarilla Rd, McLaren Vale SA 5171",09c0c80f-4213-40b5-9ecd-df5f0f557f2e,
9847989b-5bcf-4011-9724-340b71607b56,"285 Blewitt Springs Rd, Blewitt Springs","Adelaide",1,09c0c80f-4213-40b5-9ecd-df5f0f557f2e,"SA",,-35.187553,138.59439,"285 Blewitt Springs Rd, Blewitt Springs, Blewitt Springs SA",09c0c80f-4213-40b5-9ecd-df5f0f557f2e,
e486a7e7-6998-4c15-b3f4-2e4b9afd08d5,"3 Perseverance Rd","Adelaide",1,09c0c80f-4213-40b5-9ecd-df5f0f557f2e,"SA",,-34.822178,138.730809,"3 Perseverance Road Tea Tree Gully  SA ",09c0c80f-4213-40b5-9ecd-df5f0f557f2e,
44b24ace-7d15-468a-b750-01bcc152c870,"306 Goodwood Road, Clarence Park, South Australia","Adelaide",1,09c0c80f-4213-40b5-9ecd-df5f0f557f2e,"SA",,-34.963756,138.590142,"306 Goodwood Road, Clarence Park, Clarence Park SA",09c0c80f-4213-40b5-9ecd-df5f0f557f2e,
0842f5ad-f7c1-4b80-9d40-d121d92129d0,"314 Kangarilla Rd","Adelaide",1,09c0c80f-4213-40b5-9ecd-df5f0f557f2e,"SA",,-35.209514,138.576429,"314 Kangarilla Rd, McLaren Vale SA",09c0c80f-4213-40b5-9ecd-df5f0f557f2e,
bc2c0823-115b-40bd-9996-12dcc55e29a9,"339 Belair Rd","Adelaide",1,09c0c80f-4213-40b5-9ecd-df5f0f557f2e,"SA","Belair",-35.000339,138.60693,"339 Belair Road, Belair SA",09c0c80f-4213-40b5-9ecd-df5f0f557f2e,
1049c8b6-f1b0-4d22-9f44-35b8c575293f,"37 Martin St, Port Willunga, South Australia","Adelaide",1,09c0c80f-4213-40b5-9ecd-df5f0f557f2e,"SA",,-35.260916,138.46638,"37 Martin St, Port Willunga, Port Willunga SA",09c0c80f-4213-40b5-9ecd-df5f0f557f2e,
a5fb3a31-db8e-4503-8745-b9c037cf0e74,"371 Plains Rd, Sellicks Hill, South Australia","Adelaide",1,09c0c80f-4213-40b5-9ecd-df5f0f557f2e,"SA",,-35.308589,138.486258,"371 Plains Rd, Sellicks Hill SA",09c0c80f-4213-40b5-9ecd-df5f0f557f2e,
9b8a2fa6-c9bf-4780-95db-cf829714e83a,"3737 Main South Rd, Sellicks Hil","Adelaide",1,09c0c80f-4213-40b5-9ecd-df5f0f557f2e,"SA",,-35.308881,138.486121,"374 Plains Road, Sellicks Hill, Sellicks Hill SA",09c0c80f-4213-40b5-9ecd-df5f0f557f2e,
d8ecc1e7-00df-4645-a6f3-c22b4fdf164f,"377 California Rd, Tatachilla","Adelaide",1,09c0c80f-4213-40b5-9ecd-df5f0f557f2e,"SA",,-35.239569,138.519605,"377 California Road, Tatachilla SA",09c0c80f-4213-40b5-9ecd-df5f0f557f2e,
d0ac916a-8ac5-4885-a1fc-9b822a347079,"402 Main Rd, McLaren Vale SA 5171","Adelaide",1,09c0c80f-4213-40b5-9ecd-df5f0f557f2e,"SA",,-35.235603,138.551532,"402 Main Rd, McLaren Vale SA 5171",09c0c80f-4213-40b5-9ecd-df5f0f557f2e,
a3cabe91-5fcf-409b-ae0a-374b8746a2f9,"44 Henley Beach Rd","Adelaide",1,09c0c80f-4213-40b5-9ecd-df5f0f557f2e,"SA",,-34.9231,138.574747,"44 Henley Beach Road",09c0c80f-4213-40b5-9ecd-df5f0f557f2e,
66f4cba2-6630-4a67-8831-67ea193b338f,"45 Grants Gully Rd","Adelaide",1,09c0c80f-4213-40b5-9ecd-df5f0f557f2e,"SA",,-35.108687,138.626288,"45 Grants Gully Rd",09c0c80f-4213-40b5-9ecd-df5f0f557f2e,
7823994c-0093-4f32-b265-3117fd2f00d9,"46 High St, Burnside, South Australia","Adelaide",1,09c0c80f-4213-40b5-9ecd-df5f0f557f2e,"SA",,-34.936384,138.666037,"46 High Street, Burnside, Burnside SA",09c0c80f-4213-40b5-9ecd-df5f0f557f2e,
284748b6-b4c2-4904-b9e7-1383424c967e,"479 Payneham Rd","Adelaide",1,09c0c80f-4213-40b5-9ecd-df5f0f557f2e,"SA",,-34.889586,138.655253,"479 Payneham Rd",09c0c80f-4213-40b5-9ecd-df5f0f557f2e,
52ebf814-0293-40ae-8565-939be4337c36,"49 Vaughtons Track Via Warners Road, McLaren Vale","Adelaide",1,09c0c80f-4213-40b5-9ecd-df5f0f557f2e,"SA",,-35.194917,138.528965,"49 Vaughtons Track Via Warners Road, McLaren Vale SA",09c0c80f-4213-40b5-9ecd-df5f0f557f2e,
a33b3fc0-7107-4bef-8ce9-ae87bbdaeaad,"50 Range Rd W","Adelaide",1,09c0c80f-4213-40b5-9ecd-df5f0f557f2e,"SA",,-35.294844,138.575058,"50 Range Rd W, Willunga SA",09c0c80f-4213-40b5-9ecd-df5f0f557f2e,
bec8fa77-57ab-4951-80ee-a50a33d68d7e,"536 Goodwood Rd","Adelaide",1,09c0c80f-4213-40b5-9ecd-df5f0f557f2e,"SA",,-34.979654,138.591472,"536 Goodwood Rd, Daw Park SA 5041",09c0c80f-4213-40b5-9ecd-df5f0f557f2e,
a16c22ea-8d3f-4faa-9be6-f4bf34189445,"6 Duthy St","Adelaide",1,09c0c80f-4213-40b5-9ecd-df5f0f557f2e,"SA",,-34.948694,138.614004,"6 Duthy St",,
cc6864b7-979f-40e9-8662-1128df44076b,"6/1199 The Horsley Dr","Adelaide",1,09c0c80f-4213-40b5-9ecd-df5f0f557f2e,"SA",,-34.907777,138.528801,,09c0c80f-4213-40b5-9ecd-df5f0f557f2e,
8a0964fe-9483-4ad7-abec-9c06e7447fe7,"67 Rivers Lane McLaren Vale","Adelaide",1,09c0c80f-4213-40b5-9ecd-df5f0f557f2e,"SA",,-35.214063,138.527192,"67 Rivers Lane, McLaren Vale SA",09c0c80f-4213-40b5-9ecd-df5f0f557f2e,
4e96b371-cf17-4358-b3f1-a152257f93d3,"67 Semaphore Rd","Adelaide",1,09c0c80f-4213-40b5-9ecd-df5f0f557f2e,"SA","Semaphore",-34.83868,138.484949,"67 Semaphore Road, Semaphore",09c0c80f-4213-40b5-9ecd-df5f0f557f2e,
366e32cc-b143-4a63-a22d-7240af40fb0e,"7 Osmond Terrace","Adelaide",1,09c0c80f-4213-40b5-9ecd-df5f0f557f2e,"SA",,-34.916229,138.630918,"7 Osmond Terrace",09c0c80f-4213-40b5-9ecd-df5f0f557f2e,
33e7bd70-3c5f-461f-aee4-8e6ca11e9d67,"7 Watahuna Ave","Adelaide",1,09c0c80f-4213-40b5-9ecd-df5f0f557f2e,"SA",,-35.021034,138.622812,,09c0c80f-4213-40b5-9ecd-df5f0f557f2e,
6403ba91-4c87-464c-a87e-1ffcd3c94bb8,"8 Denis St","Adelaide",1,09c0c80f-4213-40b5-9ecd-df5f0f557f2e,"SA",,-34.997038,138.577464,"8 Denis Street",09c0c80f-4213-40b5-9ecd-df5f0f557f2e,
73f60747-8e07-40bb-ba02-9d6fb4b35367,"82 Ifould St","Adelaide",1,09c0c80f-4213-40b5-9ecd-df5f0f557f2e,"SA",,-34.927346,138.61032,"82 Ifould St",09c0c80f-4213-40b5-9ecd-df5f0f557f2e,
d1177d33-f36f-473c-aca6-134077e35e6b,"90 Rogers Rd","Adelaide",1,09c0c80f-4213-40b5-9ecd-df5f0f557f2e,"SA",,-35.307033,138.483062,"90 Rogers Rd, Sellicks Hill, Sellicks Hill SA",09c0c80f-4213-40b5-9ecd-df5f0f557f2e,
83aa90dd-73fd-4850-b92b-61cf04b819e9,"92 Glen Osmond Rd","Adelaide",1,09c0c80f-4213-40b5-9ecd-df5f0f557f2e,"SA",,-34.944311,138.621474,"92 Glen Osmond Rd",09c0c80f-4213-40b5-9ecd-df5f0f557f2e,
991631fc-632b-42f1-a671-74aea50268fe,"Birdwood, SA","Adelaide",1,09c0c80f-4213-40b5-9ecd-df5f0f557f2e,"SA",,-34.975504,138.622991,,09c0c80f-4213-40b5-9ecd-df5f0f557f2e,
7e423df4-8c24-43c8-9e23-a322f77b60be,"118 Aldgate Valley Rd","Adelaide Hills",1,214cba3e-b81d-4a5e-85cf-c7c49634d6fc,"SA",,-35.036268,138.753347,"118 Aldgate Valley Rd, Aldgate SA",214cba3e-b81d-4a5e-85cf-c7c49634d6fc,
04927f66-bca1-4471-a13d-3f362cc87e15,"118 Aldgate Valley Rd, Mylor SA","Adelaide Hills",1,214cba3e-b81d-4a5e-85cf-c7c49634d6fc,"SA",,-35.036268,138.753347,"118 Aldgate Valley Rd, Mylor SA",214cba3e-b81d-4a5e-85cf-c7c49634d6fc,
50a234b9-5fc2-4f2b-a00a-e1447560afee,"141 Onkaparinga Valley Road, Woodside,","Adelaide Hills",1,214cba3e-b81d-4a5e-85cf-c7c49634d6fc,"SA",,-34.942013,138.876322,"141 Onkaparinga Valley Road, Woodside SA",214cba3e-b81d-4a5e-85cf-c7c49634d6fc,
df517890-8cea-476a-9786-c542b4b7bfe9,"2 Glenside Lane Stirling","Adelaide Hills",1,214cba3e-b81d-4a5e-85cf-c7c49634d6fc,"SA",,-34.996604,138.717247,"2 Glenside Lane Stirling, Stirling SA",214cba3e-b81d-4a5e-85cf-c7c49634d6fc,
5209e39f-e75b-4662-abf5-bf3ef91e0503,"3 Rugby Road  Aldgate South Australia","Adelaide Hills",1,214cba3e-b81d-4a5e-85cf-c7c49634d6fc,"SA",,-35.015872,138.73664,"3 Rugby Road, Aldgate SA 5154",214cba3e-b81d-4a5e-85cf-c7c49634d6fc,
bfa0c450-0b45-4ccb-9b9d-932a31599925,"365 Mount Lofty Summit Rd","Adelaide Hills",1,214cba3e-b81d-4a5e-85cf-c7c49634d6fc,"SA",,-34.970738,138.704618,"365 Mount Lofty Summit Road",214cba3e-b81d-4a5e-85cf-c7c49634d6fc,
eea62c9c-2f45-4705-8a2a-3b7ff56bd74f,"64 Gross Rd","Adelaide Hills",1,214cba3e-b81d-4a5e-85cf-c7c49634d6fc,"SA","Mylor",-35.025733,138.774961,"64 Gross Rd, Mylor SA 5153",214cba3e-b81d-4a5e-85cf-c7c49634d6fc,
a4a957bf-736c-4824-8df0-74a93661a61b,"759 Swamp Rd","Adelaide Hills",1,214cba3e-b81d-4a5e-85cf-c7c49634d6fc,"SA",,-34.927679,138.825918,"759 Swamp Road, Lenswood, Lenswood SA",214cba3e-b81d-4a5e-85cf-c7c49634d6fc,
57ec1645-e75b-49c1-af58-a5d2ebd28399,"8 Mount Barker Road, Stirling, South Australia","Adelaide Hills",1,214cba3e-b81d-4a5e-85cf-c7c49634d6fc,"SA",,-35.004638,138.715743,"8 Mount Barker Road, Stirling SA",214cba3e-b81d-4a5e-85cf-c7c49634d6fc,
cf990f26-ba82-4b3c-a2a8-1efd11c7c24c,"9 Hoylake Ave","Adelaide Hills",1,214cba3e-b81d-4a5e-85cf-c7c49634d6fc,"SA",,-34.995529,138.742312,"9 Hoylake Ave, Stirling SA",214cba3e-b81d-4a5e-85cf-c7c49634d6fc,
f85171de-c0f2-4eaf-a5c7-7db9d3ef1cdb,"1246 Barossa Valley Way, Barossa, Lyndoch,","Barossa Valley",1,49ade35d-e254-466f-bf2c-1e0b79062622,"SA",,-34.592116,138.877519,"1246 Barossa Valley Way, Lyndoch SA",49ade35d-e254-466f-bf2c-1e0b79062622,
47618f44-60da-4cf4-9558-95dee50dd7af,"221 Yaldara Dr","Barossa Valley",1,49ade35d-e254-466f-bf2c-1e0b79062622,"SA","Lyndoch",-34.576502,138.869703,"221 Yaldara Dr, Lyndoch SA 5351",49ade35d-e254-466f-bf2c-1e0b79062622,
ad9521a4-1239-498f-ad09-02642e4abc67,"346 Tweedies Gully Road Lyndoch South Australia,","Barossa Valley",1,49ade35d-e254-466f-bf2c-1e0b79062622,"SA",,-34.623755,138.921219,"346 Tweedies Gully Road, Williamstown, Williamstown SA 5351",49ade35d-e254-466f-bf2c-1e0b79062622,
94d185be-1f35-4f86-80e3-6d41c73e16ea,"444 Seppeltsfield Road Marananga","Barossa Valley",1,49ade35d-e254-466f-bf2c-1e0b79062622,"SA",,-34.484589,138.939462,"444 Seppeltsfield Road, Marananga SA",49ade35d-e254-466f-bf2c-1e0b79062622,
e139d315-b800-4cf6-b785-7b7f80d20243,"48 Main St","Barossa Valley",1,49ade35d-e254-466f-bf2c-1e0b79062622,"SA","Lobethal",-34.340603,138.915768,"48 Main Street, Lobethal, SA",49ade35d-e254-466f-bf2c-1e0b79062622,
bd1e72c4-d0f4-4e98-aa3c-b3f76a7607bb,"564 Rifle Range Rd","Barossa Valley",1,49ade35d-e254-466f-bf2c-1e0b79062622,"SA",,-34.569133,138.995093,"564 Rifle Range Road, Flaxman Valley SA 5235",49ade35d-e254-466f-bf2c-1e0b79062622,
430db259-2d3e-47ec-b7ef-534558f969aa,"23 Commercial St","Clare Valley",1,4095a611-dc09-410a-b32a-a8cbb16c9d36,"SA",,-33.989448,139.081362,"23 Commercial St",4095a611-dc09-410a-b32a-a8cbb16c9d36,
b1efd26a-0135-4aa1-8ce3-198d1c4192d6,"Frenchmans Terrace, Penneshaw, Kangaroo Island,","Kangaroo Island",1,38e8945c-4057-4f2a-9a50-928f5ce0e341,"SA",,-35.721651,137.945549,"Frenchmans Terrace, Penneshaw SA",38e8945c-4057-4f2a-9a50-928f5ce0e341,
cce955d0-03fc-45d7-90e9-e7da8efd33d9,"1 Charles St","McLaren Vale",1,c3611bb4-86bd-4ccf-9b29-5fb56ff61a62,"SA","Middleton",-35.509845,138.72197,"1 Charles Street, Middleton SA",c3611bb4-86bd-4ccf-9b29-5fb56ff61a62,
24a1bbc9-5f2e-4c57-ad4e-4dffca22da38,"10 Welch Road, Victor Harbor","McLaren Vale",1,c3611bb4-86bd-4ccf-9b29-5fb56ff61a62,"SA","Victor Harbor",-35.519275,138.632693,"10 Welch Road, Victor Harbor",c3611bb4-86bd-4ccf-9b29-5fb56ff61a62,
89675196-3e40-40db-8f16-9ca2f6779ef2,"333 Rarkang Rd","McLaren Vale",1,c3611bb4-86bd-4ccf-9b29-5fb56ff61a62,"SA","Deep Creek",-35.63505,138.160066,"333 Rarkang Rd, Deep Creek SA",c3611bb4-86bd-4ccf-9b29-5fb56ff61a62,
138f9c9c-0b50-4352-982b-8f16073f71d8,"14376 Goyder Hwy","",2,,"SA",,-34.14903,140.29506,"14376 Goyder Hwy, Waikerie SA",,
36cc2f7e-5e01-489a-868f-bd2fda67338a,"172 Gerogles Rd","",2,,"SA",,-34.944575,139.241267,"172 Gerogles Road, Caloote, Caloote SA 5254",585dbb6c-2a58-4640-ac08-b8ee068802aa,
f54356c7-ed90-4866-b859-c4d74b8d41a3,"230 Eudunda Rd","",2,,"SA",,-34.388259,139.125867,"230 Eudunda Rd, Barossa Valley SA",,
99aa2753-581e-4e3a-b1e3-c0fec203ced8,"2948 Arkaroola Rd","",2,,"SA",,-30.311755,139.336094,"2948 Arkaroola Rd, Arkaroola Village SA 5701",,
206b528b-42b7-44e4-af62-642e8c0a720c,"55 Horrocks Hwy","",2,,"SA","Stone Hut",-33.103461,138.297636,"Lot 1, 55 Horrocks Highway, Stone Hut SA 5480",,
0948fc61-c3e4-4178-bf73-ed07953973ad,"Adelaide Hills, SA","",2,,"SA",,-32.144864,133.655315,,,
28e8109b-0bd8-490f-8173-1a4bdbd78dc6,"1 Goldie Street Wynyard, Tasmania","Cradle Country",1,612afb77-4bb2-4528-aa67-82c4ed0e65af,"TAS",,-40.988379,145.73519,"1 Goldie Street, Wynyard TAS",612afb77-4bb2-4528-aa67-82c4ed0e65af,
97b0f3af-b7ef-486d-82eb-192409feee0f,"1135 Pine Road, Riana","Cradle Country",1,612afb77-4bb2-4528-aa67-82c4ed0e65af,"TAS",,-41.192607,146.007995,"1135 Pine Road, Riana, Riana TAS",612afb77-4bb2-4528-aa67-82c4ed0e65af,
30cfb95e-8314-4da7-ba26-2224cbb95bfa,"148 William St, Devonport","Cradle Country",1,612afb77-4bb2-4528-aa67-82c4ed0e65af,"TAS",,-41.176291,146.351379,"148 William St, Devonport TAS",612afb77-4bb2-4528-aa67-82c4ed0e65af,
8704d1b9-04cc-4eef-a3b4-52e7ddb65561,"16 Alexander Terrace, Stanley","Cradle Country",1,612afb77-4bb2-4528-aa67-82c4ed0e65af,"TAS",,-40.765412,145.298452,"16 Alexander Terrace, Stanley TAS",612afb77-4bb2-4528-aa67-82c4ed0e65af,
4bb4f2c2-83dc-44e5-8a0b-63dce67e793a,"192 Careys Rd","Cradle Country",1,612afb77-4bb2-4528-aa67-82c4ed0e65af,"TAS",,-41.411193,146.266721,"192 Careys Rd, Sheffield TAS",612afb77-4bb2-4528-aa67-82c4ed0e65af,
dc552853-db88-4c9a-bc22-09dbeb920829,"23 King Edward Street, Ulverstone, TAS","Cradle Country",1,612afb77-4bb2-4528-aa67-82c4ed0e65af,"TAS",,-41.156484,146.172398,"23 King Edward Street, Ulverstone TAS 7315",612afb77-4bb2-4528-aa67-82c4ed0e65af,
0b4d94ef-3958-46f2-b766-47c85959a0ae,"24 Church St","Cradle Country",1,612afb77-4bb2-4528-aa67-82c4ed0e65af,"TAS","Stanley",-40.760095,145.29639,"24 Church Street, Stanley TAS 7331",612afb77-4bb2-4528-aa67-82c4ed0e65af,
5916545a-b954-4c94-978e-7e53d1cdef48,"256c Waverley Rd","Cradle Country",1,612afb77-4bb2-4528-aa67-82c4ed0e65af,"TAS",,-41.161536,146.310721,"256c Waverley Road, TAS",612afb77-4bb2-4528-aa67-82c4ed0e65af,
f74c9594-803c-4c6a-9d82-39184caf6e1b,"46 Strahan St","Cradle Country",1,612afb77-4bb2-4528-aa67-82c4ed0e65af,"TAS",,-41.062346,145.911345,"46 Strahan St",612afb77-4bb2-4528-aa67-82c4ed0e65af,
772c4aa6-73c0-4e9b-bf49-728949f2d3b0,"51 Formby Rd, Devonport","Cradle Country",1,612afb77-4bb2-4528-aa67-82c4ed0e65af,"TAS",,-41.182688,146.361688,"51 Formby Road",612afb77-4bb2-4528-aa67-82c4ed0e65af,
55691fe3-c7fc-4bad-810d-d1f80bd3617b,"574 Castra Rd","Cradle Country",1,612afb77-4bb2-4528-aa67-82c4ed0e65af,"TAS",,-41.212419,146.170546,"574 Castra Rd",612afb77-4bb2-4528-aa67-82c4ed0e65af,
8fe2b14a-4033-4428-b4fd-55a7baeae3fb,"72-74 Mersey Main Road Spreyton Tasmania,","Cradle Country",1,612afb77-4bb2-4528-aa67-82c4ed0e65af,"TAS",,-41.217367,146.344533,"72-74 Mersey Main Road, Spreyton TAS",612afb77-4bb2-4528-aa67-82c4ed0e65af,
5dc34924-892b-4ca6-8904-d8c03eca8b28,"851 Ironcliffe Rd","Cradle Country",1,612afb77-4bb2-4528-aa67-82c4ed0e65af,"TAS",,-41.162856,146.027969,"851 Ironcliffe Rd, Penguin TAS",612afb77-4bb2-4528-aa67-82c4ed0e65af,
b54eac7d-ddcf-427d-8ae9-bad9b5b54c70,"1011 Adventure Bay Rd","Hobart & Southern Tasmania",1,44270aeb-3822-4d3a-913f-fd55f99f6f8c,"TAS",,-43.362213,147.359624,"1011 Adventure Bay Rd, Adventure Bay TAS",44270aeb-3822-4d3a-913f-fd55f99f6f8c,
b6605696-4a83-4975-a289-a2198db5a2ae,"126 Mornington Rd, Mornington TAS","Hobart & Southern Tasmania",1,44270aeb-3822-4d3a-913f-fd55f99f6f8c,"TAS","Mornington",-42.861749,147.407889,"126 Mornington Rd, Mornington TAS 7018",44270aeb-3822-4d3a-913f-fd55f99f6f8c,
722b01b1-7f9c-4585-aab0-6e1d25b5208f,"131 Albert Rd","Hobart & Southern Tasmania",1,44270aeb-3822-4d3a-913f-fd55f99f6f8c,"TAS",,-42.849169,147.309983,"131 Albert Rd",44270aeb-3822-4d3a-913f-fd55f99f6f8c,
97428eb5-9c2a-4823-827a-b9502703caa1,"160 Church Rd, Barnes Bay TAS 7150","Hobart & Southern Tasmania",1,44270aeb-3822-4d3a-913f-fd55f99f6f8c,"TAS",,-43.120285,147.360478,"160 Church Rd, Barnes Bay, Barnes Bay TAS 7150",44270aeb-3822-4d3a-913f-fd55f99f6f8c,
e8b02655-94df-4edc-83a8-2b3510b6deb8,"161 Cades Dr","Hobart & Southern Tasmania",1,44270aeb-3822-4d3a-913f-fd55f99f6f8c,"TAS",,-42.964066,147.258474,"161 Cades Drive, Kingston, Kingston TAS 7050",44270aeb-3822-4d3a-913f-fd55f99f6f8c,
6899b0a3-78a4-44e4-8e5f-1c249e7df9b8,"1755 Channel Hwy","Hobart & Southern Tasmania",1,44270aeb-3822-4d3a-913f-fd55f99f6f8c,"TAS",,-43.029892,147.264544,"1755 Channel Highway Margate Tasmania",44270aeb-3822-4d3a-913f-fd55f99f6f8c,
9515f8aa-6a60-48ee-a6fe-0f9d2e6bb9bf,"20 Kangaroo Bay Drive, Rosny Park, Hobart, Tasmania","Hobart & Southern Tasmania",1,44270aeb-3822-4d3a-913f-fd55f99f6f8c,"TAS",,-42.869894,147.36725,,44270aeb-3822-4d3a-913f-fd55f99f6f8c,
67b7b2ce-5102-4f58-a0be-17272eb80505,"20 Mary Street, Cygnet","Hobart & Southern Tasmania",1,44270aeb-3822-4d3a-913f-fd55f99f6f8c,"TAS",,-43.161586,147.077351,"20 Mary Street, Cygnet, Cygnet TAS 7112",44270aeb-3822-4d3a-913f-fd55f99f6f8c,
986a5cb8-eca0-4360-94d6-d164c0649e28,"26-A Jackson St","Hobart & Southern Tasmania",1,44270aeb-3822-4d3a-913f-fd55f99f6f8c,"TAS",,-42.840643,147.254757,"26-A Jackson Street",44270aeb-3822-4d3a-913f-fd55f99f6f8c,
dea3caa5-44f4-477a-8c62-b85ee1c7086d,"2862 Lyell Hwy","Hobart & Southern Tasmania",1,44270aeb-3822-4d3a-913f-fd55f99f6f8c,"TAS",,-42.730618,146.960575,"2862 Lyell Highway",44270aeb-3822-4d3a-913f-fd55f99f6f8c,
8c108812-34d3-4f08-9a90-f35c3699c917,"300 Browns Rd","Hobart & Southern Tasmania",1,44270aeb-3822-4d3a-913f-fd55f99f6f8c,"TAS",,-42.981071,146.997349,"300 Browns Road, Ranelagh, Ranelagh TAS",44270aeb-3822-4d3a-913f-fd55f99f6f8c,
fb2ecce5-3543-403b-acd3-6f90cbd8b7a9,"350 Chauncy Vale Rd","Hobart & Southern Tasmania",1,44270aeb-3822-4d3a-913f-fd55f99f6f8c,"TAS",,-42.613077,147.256585,"350 Chauncy Vale Rd",44270aeb-3822-4d3a-913f-fd55f99f6f8c,
3c377679-d7a6-433c-9767-8d360c032ec5,"3866 Channel Highway Woodbridge","Hobart & Southern Tasmania",1,44270aeb-3822-4d3a-913f-fd55f99f6f8c,"TAS",,-43.192356,147.24001,"3866 Channel Highway Birchs Bay Tasmania",44270aeb-3822-4d3a-913f-fd55f99f6f8c,
678951f6-142c-4357-9175-a765ea08fa76,"5831 Lyell Hwy","Hobart & Southern Tasmania",1,44270aeb-3822-4d3a-913f-fd55f99f6f8c,"TAS",,-42.561518,146.782421,"5831 Lyell Hwy, TAS",44270aeb-3822-4d3a-913f-fd55f99f6f8c,
1e7e3e3f-8b57-4325-87b9-f1546bdb5235,"593 Briggs Rd","Hobart & Southern Tasmania",1,44270aeb-3822-4d3a-913f-fd55f99f6f8c,"TAS",,-42.70876,147.271598,"593 Briggs Rd",44270aeb-3822-4d3a-913f-fd55f99f6f8c,
ab58e24a-77b0-45a8-b134-f989f2cbc684,"739 Brinktop Rd","Hobart & Southern Tasmania",1,44270aeb-3822-4d3a-913f-fd55f99f6f8c,"TAS",,-42.734906,147.466687,"739 Brinktop Rd, Hobart TAS",44270aeb-3822-4d3a-913f-fd55f99f6f8c,
4682ed7f-0af9-4529-a493-01598b08650e,"77 Howden Road, Howden","Hobart & Southern Tasmania",1,44270aeb-3822-4d3a-913f-fd55f99f6f8c,"TAS",,-43.009795,147.279479,"77 Howden Road, Howden, Howden TAS",44270aeb-3822-4d3a-913f-fd55f99f6f8c,
0a313c45-07a4-46cd-a4d1-47af10c50093,"9 Crowthers Rd","Hobart & Southern Tasmania",1,44270aeb-3822-4d3a-913f-fd55f99f6f8c,"TAS",,-43.140454,146.96926,"9 Crowthers Road, Castle Forbes Bay TAS",44270aeb-3822-4d3a-913f-fd55f99f6f8c,
83049f7a-1a37-4d3e-a3d1-2c011f628011,"90 Cradoc Hill Rd, Cradoc","Hobart & Southern Tasmania",1,44270aeb-3822-4d3a-913f-fd55f99f6f8c,"TAS",,-43.101552,147.038262,"90 Cradoc Hill Rd, Cradoc TAS",44270aeb-3822-4d3a-913f-fd55f99f6f8c,
3bf39127-9ed2-4f1a-a9ee-7377a39c61e4,"911 Coolangatta Rd","Hobart & Southern Tasmania",1,44270aeb-3822-4d3a-913f-fd55f99f6f8c,"TAS",,-43.378825,147.25914,"911 Coolangatta Rd, Bruny Island TAS",44270aeb-3822-4d3a-913f-fd55f99f6f8c,
34b2ec0d-8234-457f-b017-7dccafe1219c,"Bruny Island, TAS","Hobart & Southern Tasmania",1,44270aeb-3822-4d3a-913f-fd55f99f6f8c,"TAS",,-43.366667,147.283333,,44270aeb-3822-4d3a-913f-fd55f99f6f8c,
ee1f241b-d4af-45fa-aec3-a11d10bdbaf8,"Facebook     Instagram  10 Sunderland Street Moonah, Hobart","Hobart & Southern Tasmania",1,44270aeb-3822-4d3a-913f-fd55f99f6f8c,"TAS",,-42.844973,147.295642,"10 Sunderland Street, Moonah TAS",44270aeb-3822-4d3a-913f-fd55f99f6f8c,
6aab555d-914e-489b-a55b-dfb76fdf5e6a,"Glen Huon, TAS","Hobart & Southern Tasmania",1,44270aeb-3822-4d3a-913f-fd55f99f6f8c,"TAS",,-43.02614,146.9605,,44270aeb-3822-4d3a-913f-fd55f99f6f8c,
2e21573d-3b66-4b72-a564-8c1b67039d51,"Moonah, TAS","Hobart & Southern Tasmania",1,44270aeb-3822-4d3a-913f-fd55f99f6f8c,"TAS",,-42.84741,147.295839,"71a Main Road, Moonah TAS",44270aeb-3822-4d3a-913f-fd55f99f6f8c,
023efdfb-2ddd-4865-b7a0-49d4e2bb9ac6,"Wiggins Rd, Wattle Hill TAS","Hobart & Southern Tasmania",1,44270aeb-3822-4d3a-913f-fd55f99f6f8c,"TAS",,-42.777957,147.675882,"Wiggins Rd, Wattle Hill, Wattle Hill TAS",44270aeb-3822-4d3a-913f-fd55f99f6f8c,
073d44f6-8411-418c-ad54-4c7c93e8766d,"112 Lansdowne Cres","Hobart City",1,22815e33-8179-4e95-aa4e-13acb289e0e9,"TAS",,-42.883696,147.314654,"112 Lansdowne Crescent",22815e33-8179-4e95-aa4e-13acb289e0e9,
9105e149-4dcb-4517-97a5-a6c7fe787d31,"128 Bathurst St","Hobart City",1,22815e33-8179-4e95-aa4e-13acb289e0e9,"TAS",,-42.88282,147.323426,"128 Bathurst Street",22815e33-8179-4e95-aa4e-13acb289e0e9,
bdc90477-7487-410c-a4a5-3f55385bf374,"130 Macquarie St","Hobart City",1,22815e33-8179-4e95-aa4e-13acb289e0e9,"TAS",,-42.88439,147.328439,"130 Macquarie Street",22815e33-8179-4e95-aa4e-13acb289e0e9,
34aa60d2-5f0a-4dec-94ac-8c13a5d245f1,"147 Argyle St","Hobart City",1,22815e33-8179-4e95-aa4e-13acb289e0e9,"TAS",,-42.876322,147.323573,"147 Argyle Street",22815e33-8179-4e95-aa4e-13acb289e0e9,
15905a30-1f32-45d2-8540-719adc8e4716,"151/153 Argyle Street, Hobart","Hobart City",1,22815e33-8179-4e95-aa4e-13acb289e0e9,"TAS",,-42.874538,147.320683,"151/153 Argyle Street, Hobart TAS",22815e33-8179-4e95-aa4e-13acb289e0e9,
6e016212-766d-4783-8790-25219970a4c1,"16 Argyle St","Hobart City",1,22815e33-8179-4e95-aa4e-13acb289e0e9,"TAS",,-42.882633,147.331616,"16 Argyle Street",22815e33-8179-4e95-aa4e-13acb289e0e9,
92d11380-9071-4dd2-8ee3-bafee158fe62,"160-162 Elizabeth Street, Hobart","Hobart City",1,22815e33-8179-4e95-aa4e-13acb289e0e9,"TAS",,-42.879619,147.322571,"160-162 Elizabeth Street, Hobart TAS",22815e33-8179-4e95-aa4e-13acb289e0e9,
0f833a7b-bbf7-4d79-a73a-a18d9068c631,"167A Harrington Street Hobart Tasmania","Hobart City",1,22815e33-8179-4e95-aa4e-13acb289e0e9,"TAS",,-42.881557,147.320922,"167A Harrington Street, Hobart TAS",22815e33-8179-4e95-aa4e-13acb289e0e9,
b42e7346-6c01-48c6-bf49-a54f7af0e07e,"170 New Town Road New Town TAS","Hobart City",1,22815e33-8179-4e95-aa4e-13acb289e0e9,"TAS",,-42.858774,147.30445,"170 New Town Road",22815e33-8179-4e95-aa4e-13acb289e0e9,
a708216f-d640-478c-9091-d8cff0909a5e,"173 Elizabeth St","Hobart City",1,22815e33-8179-4e95-aa4e-13acb289e0e9,"TAS",,-42.879602,147.323769,"173 Elizabeth Street",22815e33-8179-4e95-aa4e-13acb289e0e9,
e240b54c-27d3-4a1f-b25c-791e93a02ec9,"219B Murray St","Hobart City",1,22815e33-8179-4e95-aa4e-13acb289e0e9,"TAS",,-42.87876,147.319512,"219B Murray Street",22815e33-8179-4e95-aa4e-13acb289e0e9,
b2ede266-2644-4a9c-b46b-248fe3237849,"29 Hampden Rd","Hobart City",1,22815e33-8179-4e95-aa4e-13acb289e0e9,"TAS",,-42.889261,147.335546,"27-29 Hampden Road, Battery Point TAS 7004",22815e33-8179-4e95-aa4e-13acb289e0e9,
43b45048-4f5a-445b-886a-a3af56e72a09,"321 Davey Street,  Hobart,","Hobart City",1,22815e33-8179-4e95-aa4e-13acb289e0e9,"TAS",,-42.896509,147.313381,"321 Davey Street, Hobart TAS",22815e33-8179-4e95-aa4e-13acb289e0e9,
fb334867-b967-4d15-b965-beea7a85ebc0,"377 Elizabeth St","Hobart City",1,22815e33-8179-4e95-aa4e-13acb289e0e9,"TAS",,-42.872804,147.315048,"377 Elizabeth Street",22815e33-8179-4e95-aa4e-13acb289e0e9,
c9d8181f-feac-49fe-8edc-23f7abb50bf2,"40 Swanston Street, New Town Tasmania","Hobart City",1,22815e33-8179-4e95-aa4e-13acb289e0e9,"TAS",,-42.859775,147.310208,"40 Swanston Street, New Town TAS",22815e33-8179-4e95-aa4e-13acb289e0e9,
7f39d5ae-f55d-42d2-88ad-d0fea5c03f89,"42 Waterworks Rd","Hobart City",1,22815e33-8179-4e95-aa4e-13acb289e0e9,"TAS",,-42.900966,147.313489,"42 Waterworks Rd",22815e33-8179-4e95-aa4e-13acb289e0e9,
63d78d1c-719a-435f-83bb-2adadab7dff2,"47 Sandy Bay Rd","Hobart City",1,22815e33-8179-4e95-aa4e-13acb289e0e9,"TAS","Sandy Bay",-42.889826,147.329821,"47 Sandy Bay Rd, Sandy Bay TAS",22815e33-8179-4e95-aa4e-13acb289e0e9,
20d6b4c5-f538-406e-8ed8-cd7d86f91fe7,"57A Brisbane St","Hobart City",1,22815e33-8179-4e95-aa4e-13acb289e0e9,"TAS",,-42.878554,147.323737,"57A Brisbane Street, Hobart TAS 7000",22815e33-8179-4e95-aa4e-13acb289e0e9,
3122de36-1d42-44be-bd15-8bf4ed375c0f,"57C Patrick St","Hobart City",1,22815e33-8179-4e95-aa4e-13acb289e0e9,"TAS",,-42.878277,147.321554,"57C Patrick Street",22815e33-8179-4e95-aa4e-13acb289e0e9,
b328d348-b869-480c-85d0-eac4e9dad95d,"7 Gregory St","Hobart City",1,22815e33-8179-4e95-aa4e-13acb289e0e9,"TAS",,-42.895964,147.326983,"7 Gregory St",22815e33-8179-4e95-aa4e-13acb289e0e9,
4e504f53-8838-4e34-827a-f5563b37a87d,"9-11 Murray St","Hobart City",1,22815e33-8179-4e95-aa4e-13acb289e0e9,"TAS",,-42.884681,147.33048,"11 Murray St, Hobart TAS 7000",22815e33-8179-4e95-aa4e-13acb289e0e9,
d12c1ab3-46e7-4029-9eb5-478e78cc5cc1,"93 Goulburn Street West Hobart","Hobart City",1,22815e33-8179-4e95-aa4e-13acb289e0e9,"TAS",,-42.886571,147.319292,"93 Goulburn Street West Hobart, Hobart TAS",22815e33-8179-4e95-aa4e-13acb289e0e9,
15371f81-0c78-4b92-bb90-771f688e9f10,"95 Brooker Hwy","Hobart City",1,22815e33-8179-4e95-aa4e-13acb289e0e9,"TAS",,-42.875838,147.327356,"95 Brooker Highway, Glebe TAS 7000",22815e33-8179-4e95-aa4e-13acb289e0e9,
5bcfa122-9b77-4af4-9d91-5991fba79bb0,"Hobart, TAS","Hobart City",1,22815e33-8179-4e95-aa4e-13acb289e0e9,"TAS",,-42.882603,147.32573,,22815e33-8179-4e95-aa4e-13acb289e0e9,
af23a12d-ca2a-49b9-9275-96bc9ee9818a,"114 Marlborough St, Longford","Launceston & Tamar Valley",1,3b452a2e-baa1-413b-84ea-911b2ace3744,"TAS",,-41.605627,147.117944,"114 Marlborough Street, Longford TAS",3b452a2e-baa1-413b-84ea-911b2ace3744,
8cc3300a-6dd8-470f-ad63-abf87a04d0fa,"1204 Long Marsh Rd,  Lake Leake,","Launceston & Tamar Valley",1,3b452a2e-baa1-413b-84ea-911b2ace3744,"TAS",,-42.122234,147.820518,"1204 Long Marsh Rd, Lake Leake TAS",3b452a2e-baa1-413b-84ea-911b2ace3744,
5d062926-f822-4d57-bfd5-141ea6644e81,"14 St Andrews St, West Launceston,","Launceston & Tamar Valley",1,3b452a2e-baa1-413b-84ea-911b2ace3744,"TAS",,-41.450101,147.135813,"14 St Andrews Street, West Launceston TAS",3b452a2e-baa1-413b-84ea-911b2ace3744,
49efdcd4-b7ab-4f9c-9370-e49f4b925587,"1892 Mole Creek Rd","Launceston & Tamar Valley",1,3b452a2e-baa1-413b-84ea-911b2ace3744,"TAS",,-41.552693,146.456227,"1892 Mole Creek Rd",3b452a2e-baa1-413b-84ea-911b2ace3744,
f858ed4e-b57f-446d-8666-198ad83f31d2,"236 Wellington St","Launceston & Tamar Valley",1,3b452a2e-baa1-413b-84ea-911b2ace3744,"TAS",,-41.624965,147.131737,"236 Wellington Street, Longford TAS",3b452a2e-baa1-413b-84ea-911b2ace3744,
f42d812e-5108-4c42-9058-a8b8d3a6f554,"28 Seaport Boulevard, Launceston","Launceston & Tamar Valley",1,3b452a2e-baa1-413b-84ea-911b2ace3744,"TAS",,-41.432919,147.132908,"28 Seaport Boulevard, Launceston, Tasmania 7250, Launceston TAS 7250",3b452a2e-baa1-413b-84ea-911b2ace3744,
54b1f440-4bc0-4b25-9a1a-e53ea65ed9e1,"3a Coxs Ln","Launceston & Tamar Valley",1,3b452a2e-baa1-413b-84ea-911b2ace3744,"TAS",,-41.173544,147.73546,"3a Coxs Ln, Branxholm TAS",3b452a2e-baa1-413b-84ea-911b2ace3744,
c2b8e78b-28a5-416e-9119-6c08ae4f2e7d,"44 Grundys Rd Weegena","Launceston & Tamar Valley",1,3b452a2e-baa1-413b-84ea-911b2ace3744,"TAS",,-41.464228,146.4662,"44 Grundys Road Weegena, Weegena TAS 7304",3b452a2e-baa1-413b-84ea-911b2ace3744,
153b2dcb-504f-4fe8-a7d0-9b274cf174b3,"6 Tower Hill St","Launceston & Tamar Valley",1,3b452a2e-baa1-413b-84ea-911b2ace3744,"TAS",,-41.520841,146.655774,"6 Tower Hill Street, Deloraine TAS",3b452a2e-baa1-413b-84ea-911b2ace3744,
2d7f3a03-8300-435e-abd2-6d115775ced2,"6/31a Churchill Park Dr","Launceston & Tamar Valley",1,3b452a2e-baa1-413b-84ea-911b2ace3744,"TAS",,-41.417219,147.141998,"6/31a Churchill Park Dr",3b452a2e-baa1-413b-84ea-911b2ace3744,
c906485b-4b89-4189-86e3-8b3e2ebd0e25,"78 George St Launceston","Launceston & Tamar Valley",1,3b452a2e-baa1-413b-84ea-911b2ace3744,"TAS",,-41.435735,147.139785,"78 George St, Launceston TAS",3b452a2e-baa1-413b-84ea-911b2ace3744,
7cb3b206-8e03-4994-b6bd-f645a4f9d7e7,"81 Lalla Rd","Launceston & Tamar Valley",1,3b452a2e-baa1-413b-84ea-911b2ace3744,"TAS",,-41.260311,147.208563,,3b452a2e-baa1-413b-84ea-911b2ace3744,
e0be0dfe-82f0-46ae-82ea-488bf04578a7,"Cnr The Esplanade and 132 High Street, Campbell Town, Tasmania","Launceston & Tamar Valley",1,3b452a2e-baa1-413b-84ea-911b2ace3744,"TAS",,-41.932286,147.492115,,3b452a2e-baa1-413b-84ea-911b2ace3744,
813ebf16-379e-4dd9-ac36-246c8a5138fc,"Ross, Tasmania","Launceston & Tamar Valley",1,3b452a2e-baa1-413b-84ea-911b2ace3744,"TAS",,-42.030964,147.49216,,3b452a2e-baa1-413b-84ea-911b2ace3744,
e6fd397b-fd94-4609-9e5c-665a74967140,"15 Reid St","Tarkine & West Coast",1,c8aadaf0-98e6-4038-80e4-0263fdb40175,"TAS",,-42.150437,145.328112,"5 Reid Street, Strahan TAS",c8aadaf0-98e6-4038-80e4-0263fdb40175,
eba6deeb-9640-48cd-aba6-6f122fa929b8,"44 The Esplanade, Strahan","Tarkine & West Coast",1,c8aadaf0-98e6-4038-80e4-0263fdb40175,"TAS",,-42.15502,145.325127,"44 The Esplanade, Strahan TAS",c8aadaf0-98e6-4038-80e4-0263fdb40175,
87bd88a7-7dff-4a24-88c5-df4c6cdbcee1,"14228 Tasman Hwy","",2,,"TAS",,-42.055428,148.076063,"14228 Tasman Hwy, TAS",,
3aa5f695-ffe6-4a4a-a1db-9c162073b1b4,"165 Main Road, Binalong Bay, Tasmania","",2,,"TAS",,-41.256164,148.29398,"165 Main Road, Binalong Bay TAS",,
144b6a55-4ab2-4ef2-ae38-3945adda4f36,"25977 Tasman Hwy","",2,,"TAS",,-41.294128,148.186148,"25977 Tasman Highway, St Helens TAS 7216",,
47f5124f-a3d1-45c6-8161-2cca2433f4f1,"535 New England Rd, Goulds","",2,,"TAS",,-41.178333,148.041301,"535 New England Road, Goulds TAS 7216",,
085aea37-1d0f-4896-b64e-63abebf36f17,"38 Main St","Bendigo",1,38602aca-5e4d-4612-9ee5-f05f3041319f,"VIC",,-36.788524,143.550954,"38 Main Street, Bealiba VIC 3475",38602aca-5e4d-4612-9ee5-f05f3041319f,
4dd9efe3-9271-4bc9-88bc-fa1f65d7f605,"59 Leonards Hill-South Bullarto Rd","Daylesford & Hepburn Springs",1,acfe9f04-1702-453d-b3dd-62f5eb6ad360,"VIC",,-37.4214,144.207509,"59 Leonards Hill-South Bullarto Road, Bullarto VIC",acfe9f04-1702-453d-b3dd-62f5eb6ad360,
8a537ac2-b869-48c5-b2e8-ef52661790d2,"116 Furner Ave. North Geelong","Geelong",1,2d10ff0a-41b5-4514-8b08-dd8182f180c2,"VIC",,-38.103963,144.342216,"116 Furner Ave, North Geelong, North Geelong VIC",2d10ff0a-41b5-4514-8b08-dd8182f180c2,
f7f0351c-49cd-48e5-bb26-7204a2f682b2,"124 Skene street, Newtown","Geelong",1,2d10ff0a-41b5-4514-8b08-dd8182f180c2,"VIC",,-38.14711,144.341008,"124 Skene Street, Newtown VIC",2d10ff0a-41b5-4514-8b08-dd8182f180c2,
76b866fc-aa69-4154-b234-326715c1d2ce,"2/315 Pakington Street Newtown, Victoria","Geelong",1,2d10ff0a-41b5-4514-8b08-dd8182f180c2,"VIC",,-38.155558,144.34528,"2/315 Pakington Street, Newtown VIC",2d10ff0a-41b5-4514-8b08-dd8182f180c2,
4be0424d-a9be-4f85-adaf-36a546a1203f,"12 Turnbull Street (Cnr Townsend & Turnbull Streets)  Port Welshpool, Victoria,","Gippsland",1,8a4d46df-da29-4fa1-be17-c2d2d42631da,"VIC",,-38.698184,146.465198,"12 Turnbull Street, Cnr Townsend & Turnbull Streets, Port Welshpool VIC",8a4d46df-da29-4fa1-be17-c2d2d42631da,
7a582721-b07a-4a4b-a46c-41181e7e2e8f,"1435 Grandridge Road Boolarra South","Gippsland",1,8a4d46df-da29-4fa1-be17-c2d2d42631da,"VIC",,-38.44344,146.27464,"1435 Grandridge Road, Boolarra South VIC",8a4d46df-da29-4fa1-be17-c2d2d42631da,
8269abef-4095-48bc-b067-1d7555f6f81f,"153-155 Dawson St","Gippsland",1,8a4d46df-da29-4fa1-be17-c2d2d42631da,"VIC",,-38.094012,147.076836,"153-155 Dawson Street, Sale VIC 3850",8a4d46df-da29-4fa1-be17-c2d2d42631da,
a95f4030-5425-4465-a8bc-0b2adfdb30e0,"368 Mt Baw Baw Tourist Rd","Gippsland",1,8a4d46df-da29-4fa1-be17-c2d2d42631da,"VIC",,-37.893304,145.997459,"368 Mt Baw Baw Tourist Rd, Noojee VIC 3833",8a4d46df-da29-4fa1-be17-c2d2d42631da,
6313910c-5913-4c85-a053-169898f47601,"16 Grant Street Forrest Victoria","Great Ocean Road",1,429efcba-2867-4f77-ba91-42174d38021d,"VIC",,-38.517354,143.714441,"16 Grant Street, Forrest VIC",429efcba-2867-4f77-ba91-42174d38021d,
8f1d5c18-270c-4005-a39c-a89a500d62e9,"1860 Deans Marsh-Lorne Rd","Great Ocean Road",1,429efcba-2867-4f77-ba91-42174d38021d,"VIC",,-38.514754,143.975276,,429efcba-2867-4f77-ba91-42174d38021d,
b98c34c4-2b2a-4ab2-8f08-bc7781420e18,"241 Manifold St, Camperdown VIC","Great Ocean Road",1,429efcba-2867-4f77-ba91-42174d38021d,"VIC",,-38.231238,143.144244,"241 Manifold Street, Camperdown VIC",429efcba-2867-4f77-ba91-42174d38021d,
c30157d8-1a70-43c5-b93d-280ba33cacaa,"96 Gipps St","Great Ocean Road",1,429efcba-2867-4f77-ba91-42174d38021d,"VIC",,-38.381999,142.239667,"96 Gipps Street, Port Fairy VIC",429efcba-2867-4f77-ba91-42174d38021d,
71cdaab9-cc52-465e-af1c-a0df96cdeaff,"Warrnambool, VIC","Great Ocean Road",1,429efcba-2867-4f77-ba91-42174d38021d,"VIC",,-38.366163,142.470141,,429efcba-2867-4f77-ba91-42174d38021d,
03e063d5-fada-4be8-ae36-0bbbd0ab625b,"1 Belrose Ave","Melbourne",1,80bed70c-cbb4-4ef0-b018-4f0b72de8ebb,"VIC",,-37.961973,145.03925,"1 Belrose Avenue, Cheltenham VIC 3192",80bed70c-cbb4-4ef0-b018-4f0b72de8ebb,
bd403951-ffd6-4b69-a3f5-dc8c8fbe76ed,"1029 Mt Alexander Rd","Melbourne",1,80bed70c-cbb4-4ef0-b018-4f0b72de8ebb,"VIC",,-37.746882,144.911372,"1029 Mt Alexander Rd",80bed70c-cbb4-4ef0-b018-4f0b72de8ebb,
15a5386e-58ec-41bb-a166-9c98e8b22085,"1310 Malvern Road Malvern Vic,","Melbourne",1,80bed70c-cbb4-4ef0-b018-4f0b72de8ebb,"VIC",,-37.853002,145.039033,"1310 Malvern Road, Malvern VIC",,
e526cc76-c157-4f09-8479-b9748794c752,"136A Cromwell St","Melbourne",1,80bed70c-cbb4-4ef0-b018-4f0b72de8ebb,"VIC",,-37.80371,144.990588,"136A Cromwell St",80bed70c-cbb4-4ef0-b018-4f0b72de8ebb,
472ee581-bc43-4587-919b-65bc1a30d3b6,"148 Burke Road, Malvern East","Melbourne",1,80bed70c-cbb4-4ef0-b018-4f0b72de8ebb,"VIC",,-37.865254,145.050505,"148 Burke Road, Malvern East VIC",80bed70c-cbb4-4ef0-b018-4f0b72de8ebb,
e7c096a5-e78f-4778-a6d1-b8571446d3ff,"19 Morey Street, Armadale, Melbourne","Melbourne",1,80bed70c-cbb4-4ef0-b018-4f0b72de8ebb,"VIC",,-37.856288,145.019812,"19 Morey Street, Armadale, Armadale VIC 3143",80bed70c-cbb4-4ef0-b018-4f0b72de8ebb,
b0a7c113-e40f-4fce-8c64-a94a6c853bf6,"19-25 Little Bourke St Melbourne","Melbourne",1,80bed70c-cbb4-4ef0-b018-4f0b72de8ebb,"VIC",,-37.810656,144.971905,"19-25 Little Bourke Street, Melbourne VIC",80bed70c-cbb4-4ef0-b018-4f0b72de8ebb,
506d5368-8238-4041-af3c-ad58c652a601,"192 Wellington Parade","Melbourne",1,80bed70c-cbb4-4ef0-b018-4f0b72de8ebb,"VIC",,-37.815733,144.982914,"192 Wellington Parade",80bed70c-cbb4-4ef0-b018-4f0b72de8ebb,
997c05cd-8561-4eed-9b6d-df3cc9bf3d90,"194 Elgin St","Melbourne",1,80bed70c-cbb4-4ef0-b018-4f0b72de8ebb,"VIC",,-37.79701,144.968094,"194 Elgin Street",80bed70c-cbb4-4ef0-b018-4f0b72de8ebb,
46734f98-d7f4-462f-83e8-d6941a95d936,"22 Collins STreet, dromana","Melbourne",1,80bed70c-cbb4-4ef0-b018-4f0b72de8ebb,"VIC",,-37.827497,145.124893,"22 Collins Street, Dromana VIC 3936",80bed70c-cbb4-4ef0-b018-4f0b72de8ebb,
ebf6c4ef-7248-4861-87de-a1f0a3a73977,"260 Carlisle St","Melbourne",1,80bed70c-cbb4-4ef0-b018-4f0b72de8ebb,"VIC",,-37.868515,144.992682,"260 Carlisle Street, Melbourne VIC",80bed70c-cbb4-4ef0-b018-4f0b72de8ebb,
271ec722-c351-428a-be27-83f5c9488bff,"301 Rossmoyne St Thornbury","Melbourne",1,80bed70c-cbb4-4ef0-b018-4f0b72de8ebb,"VIC",,-37.759135,145.021092,,80bed70c-cbb4-4ef0-b018-4f0b72de8ebb,
7a87b539-fefc-4e0b-b438-eafa3883aa61,"369 Albert St","Melbourne",1,80bed70c-cbb4-4ef0-b018-4f0b72de8ebb,"VIC",,-37.767851,144.955258,"369 Albert Street, Brunswick, VIC, 3056",80bed70c-cbb4-4ef0-b018-4f0b72de8ebb,
294e174d-693d-43e6-b4d0-c5c7f0759673,"37 Scoresby Rd","Melbourne",1,80bed70c-cbb4-4ef0-b018-4f0b72de8ebb,"VIC",,-37.843209,145.270581,"37 Scoresby Road",80bed70c-cbb4-4ef0-b018-4f0b72de8ebb,
e29014d4-669b-4e67-8720-c13e0b94f98f,"4 Barkly Street, Brunswick East VIC 3057","Melbourne",1,80bed70c-cbb4-4ef0-b018-4f0b72de8ebb,"VIC",,-37.778344,144.979347,"14 Barkly Street",80bed70c-cbb4-4ef0-b018-4f0b72de8ebb,
d8306772-0850-457d-b7c6-1c083407b317,"47 Merri Concourse","Melbourne",1,80bed70c-cbb4-4ef0-b018-4f0b72de8ebb,"VIC",,-37.688849,145.000929,"5 Lucknow Cres, Thomastown VIC 3074",80bed70c-cbb4-4ef0-b018-4f0b72de8ebb,
f9632c30-b048-4939-aa97-0f2a2eec0c6c,"55 Peel St West Melbourne VIC","Melbourne",1,80bed70c-cbb4-4ef0-b018-4f0b72de8ebb,"VIC",,-37.806897,144.955513,"55 Peel Street West Melbourne, West Melbourne VIC",80bed70c-cbb4-4ef0-b018-4f0b72de8ebb,
83a1e1f7-5ef9-4f18-b9ba-f40b04fa0a0b,"55-57 Gertrude St","Melbourne",1,80bed70c-cbb4-4ef0-b018-4f0b72de8ebb,"VIC",,-37.805444,144.975901,"55-57 Gertrude St",80bed70c-cbb4-4ef0-b018-4f0b72de8ebb,
a6296369-c41b-4433-b8ff-f034e2250e37,"550 Tyabb-Tooradin Rd,  Pearcedale, Vic","Melbourne",1,80bed70c-cbb4-4ef0-b018-4f0b72de8ebb,"VIC",,-38.211076,145.25097,"550 Tyabb-Tooradin Road",80bed70c-cbb4-4ef0-b018-4f0b72de8ebb,
7e410e02-d3b1-4e84-a1e9-8bbe8f48c8c8,"555 Queensberry St","Melbourne",1,80bed70c-cbb4-4ef0-b018-4f0b72de8ebb,"VIC",,-37.803149,144.94888,"555 Queensberry St",80bed70c-cbb4-4ef0-b018-4f0b72de8ebb,
3395ab02-38d4-4baf-a531-2b168ad48922,"58 Industrial Drive, Braeside","Melbourne",1,80bed70c-cbb4-4ef0-b018-4f0b72de8ebb,"VIC",,-38.005687,145.111921,"58 Industrial Drive, Braeside VIC",80bed70c-cbb4-4ef0-b018-4f0b72de8ebb,
e2bb3545-8662-4d81-b985-5b23a3a055a8,"61 Stubbs St","Melbourne",1,80bed70c-cbb4-4ef0-b018-4f0b72de8ebb,"VIC",,-37.791194,144.935804,"61 Stubbs Street",80bed70c-cbb4-4ef0-b018-4f0b72de8ebb,
0681f994-ae36-4714-b182-ac9110003466,"615 Burwood Rd","Melbourne",1,80bed70c-cbb4-4ef0-b018-4f0b72de8ebb,"VIC",,-37.82352,145.044451,"615 Burwood Road, Hawthorn VIC",80bed70c-cbb4-4ef0-b018-4f0b72de8ebb,
3933d9dc-754d-407d-a352-8af5c1870b35,"66-68 Oakover Rd","Melbourne",1,80bed70c-cbb4-4ef0-b018-4f0b72de8ebb,"VIC",,-37.748765,144.992977,"66-68 Oakover Rd, Preston VIC",80bed70c-cbb4-4ef0-b018-4f0b72de8ebb,
4c9ba290-2646-414f-aec3-50b88dac906d,"668 Princes Hwy","Melbourne",1,80bed70c-cbb4-4ef0-b018-4f0b72de8ebb,"VIC","Berwick",-38.029558,145.335876,"668 Princes Highway, Berwick, Vic 3806",80bed70c-cbb4-4ef0-b018-4f0b72de8ebb,
5e1d0318-926c-41ef-a0d4-508d8b84b3c7,"67 North Street, Richmond VIC 3121","Melbourne",1,80bed70c-cbb4-4ef0-b018-4f0b72de8ebb,"VIC",,-37.816376,145.012288,"67 North Street, Richmond VIC 3121",80bed70c-cbb4-4ef0-b018-4f0b72de8ebb,
fc945e4f-0239-487d-975a-d5e6a3263414,"69 A'Beckett St","Melbourne",1,80bed70c-cbb4-4ef0-b018-4f0b72de8ebb,"VIC",,-37.809134,144.96161,"69 A'Beckett St",80bed70c-cbb4-4ef0-b018-4f0b72de8ebb,
96532294-3875-4dee-aa86-902dc9114be8,"7 Wallace Ave, Point Cook VIC","Melbourne",1,80bed70c-cbb4-4ef0-b018-4f0b72de8ebb,"VIC",,-37.874575,144.738512,"7 Wallace Ave, Point Cook VIC",80bed70c-cbb4-4ef0-b018-4f0b72de8ebb,
92aaacd5-4c90-4137-b4c0-6cb266a05239,"773 Glen Huntly Rd","Melbourne",1,80bed70c-cbb4-4ef0-b018-4f0b72de8ebb,"VIC",,-37.886643,145.021352,"773 Glen Huntly Road, Caulfield VIC",80bed70c-cbb4-4ef0-b018-4f0b72de8ebb,
888dda81-292f-4d36-9daa-56e97677a411,"8 Village Avenue, Brunswick East VIC","Melbourne",1,80bed70c-cbb4-4ef0-b018-4f0b72de8ebb,"VIC",,-37.771822,144.978527,"8 Village Avenue, Brunswick East, VIC 3057, Brunswick East VIC 3057",80bed70c-cbb4-4ef0-b018-4f0b72de8ebb,
7ac732e9-4816-476e-bb72-d7482165b483,"82 Nelson Pl","Melbourne",1,80bed70c-cbb4-4ef0-b018-4f0b72de8ebb,"VIC",,-37.863429,144.906901,"82 Nelson Place",80bed70c-cbb4-4ef0-b018-4f0b72de8ebb,
a2e7d85a-c9c4-4ba8-8957-5b5b8ccc90c9,"83b Gamon St","Melbourne",1,80bed70c-cbb4-4ef0-b018-4f0b72de8ebb,"VIC",,-37.810314,144.889976,"83B Gamon Street",80bed70c-cbb4-4ef0-b018-4f0b72de8ebb,
9f3449f9-139a-4f2c-bb1e-aebcecfa91c7,"95 Charles Street Seddon, Victoria 3011","Melbourne",1,80bed70c-cbb4-4ef0-b018-4f0b72de8ebb,"VIC",,-37.806713,144.890916,"95 Charles Street, Seddon VIC 3011",80bed70c-cbb4-4ef0-b018-4f0b72de8ebb,
77497d85-55af-461e-b0c9-21e76b11cbc9,"Factory 4, 39 Essex Street, Pascoe Vale, VIC, 3044","Melbourne",1,80bed70c-cbb4-4ef0-b018-4f0b72de8ebb,"VIC","Pascoe Vale",-37.727514,144.947547,"Factory 4, 39 Essex Street, Pascoe Vale",80bed70c-cbb4-4ef0-b018-4f0b72de8ebb,
41b4023c-bc6e-4fd3-b761-36f785660990,"Gem Pier, Williamstown, Melbourne","Melbourne",1,80bed70c-cbb4-4ef0-b018-4f0b72de8ebb,"VIC","AU",-37.862852,144.904803,"Address     1 Syme St, Williamstown, AU 3016",80bed70c-cbb4-4ef0-b018-4f0b72de8ebb,
c8dc588c-5146-40d8-859b-1f12d04e3fe1,"113 Cape Schanck Rd","Mornington Peninsula",1,ff9cf51d-fbfe-4bf3-a20f-73cf96c730d4,"VIC",,-38.468238,144.897201,"113 Cape Schanck Rd",ff9cf51d-fbfe-4bf3-a20f-73cf96c730d4,
96ff61cb-b90c-44d4-80c5-c8c6c9de2dc6,"1549 Frankston, Flinders Rd, Tyabb VIC 3913","Mornington Peninsula",1,ff9cf51d-fbfe-4bf3-a20f-73cf96c730d4,"VIC",,-38.261846,145.190193,"1549 Frankston Flinders Rd, Tyabb VIC 3913",ff9cf51d-fbfe-4bf3-a20f-73cf96c730d4,
0abcab60-b26d-441a-9b84-32f36470b377,"166 Balnarring Rd","Mornington Peninsula",1,ff9cf51d-fbfe-4bf3-a20f-73cf96c730d4,"VIC",,-38.344651,145.10074,"166 Balnarring Road",,
71f63151-aa01-44c2-b14a-e315169b1faa,"166 Balnarring Rd, Merricks North,","Mornington Peninsula",1,ff9cf51d-fbfe-4bf3-a20f-73cf96c730d4,"VIC",,-38.344651,145.10074,"166 Balnarring Rd, Merricks North VIC",ff9cf51d-fbfe-4bf3-a20f-73cf96c730d4,
b07a6753-88f6-4dc3-bd50-ff9eeddc494a,"545 Mornington-Tyabb Rd Moorooduc","Mornington Peninsula",1,ff9cf51d-fbfe-4bf3-a20f-73cf96c730d4,"VIC",,-38.246693,145.105078,"545 Mornington-Tyabb Rd, Moorooduc VIC 3933",ff9cf51d-fbfe-4bf3-a20f-73cf96c730d4,
71349d4e-960d-49c2-9273-01684856f709,"776 Arthurs Seat Rd","Mornington Peninsula",1,ff9cf51d-fbfe-4bf3-a20f-73cf96c730d4,"VIC",,-38.35346,144.952311,"776 Arthurs Seat Rd, Arthurs Seat VIC",ff9cf51d-fbfe-4bf3-a20f-73cf96c730d4,
7e51f18e-2293-4866-bfb0-a096b4a646b7,"91 Browne Ln","Mornington Peninsula",1,ff9cf51d-fbfe-4bf3-a20f-73cf96c730d4,"VIC",,-38.348634,145.027568,,ff9cf51d-fbfe-4bf3-a20f-73cf96c730d4,
7a7c6ef7-bd6f-4f0f-ad60-76910204da84,"93 Mornington-Tyabb Rd","Mornington Peninsula",1,ff9cf51d-fbfe-4bf3-a20f-73cf96c730d4,"VIC",,-38.261472,145.176255,"93 Mornington-Tyabb Road, Tyabb VIC 3913",ff9cf51d-fbfe-4bf3-a20f-73cf96c730d4,
51b57b21-7a1c-47db-9e1e-dfa9fd4be163,"33A Rhyll-Newhaven Rd","Phillip Island",1,4bb590d5-afaa-4a22-bcdf-136f536c276c,"VIC",,-38.466453,145.297937,"33A Rhyll-Newhaven Road, Rhyll VIC 3923",4bb590d5-afaa-4a22-bcdf-136f536c276c,
a36e4560-98a7-43ac-ac54-5ebd2de96113,"80 Drowleys Rd","Phillip Island",1,4bb590d5-afaa-4a22-bcdf-136f536c276c,"VIC",,-38.640828,145.688003,"80 Drowleys Road, Inverloch VIC",4bb590d5-afaa-4a22-bcdf-136f536c276c,
6d2ca528-2e21-429b-b44a-b973b125a926,"South Gippsland, VIC","Southern Forests",1,fa101d8a-29f0-45dd-acb4-3d2fa155b852,"VIC",,-34.28868,116.167332,,fa101d8a-29f0-45dd-acb4-3d2fa155b852,
9c1d9f2d-83b1-4796-bba2-494ddb89056c,"70 Princes Hwy","Sydney",1,926b0253-8c9a-4734-bc1a-57156fad7006,"VIC",,-33.910826,151.180499,"70 Princes Highway",926b0253-8c9a-4734-bc1a-57156fad7006,
07664d2d-ca92-4493-8f9f-02383c9137ed,"10 Crosbys Ln","Victorian High Country",1,72e5e6ce-dfe2-45e0-ba1f-2ccef7049489,"VIC",,-37.064942,146.104049,"Shed 2G, 10 Crosby's Lane, Mansfield VIC 3722",72e5e6ce-dfe2-45e0-ba1f-2ccef7049489,
e0309aac-292d-4914-876a-fa485c111b62,"113 Gavan Street, Bright,","Victorian High Country",1,72e5e6ce-dfe2-45e0-ba1f-2ccef7049489,"VIC",,-36.726974,146.960596,"113 Gavan Street, Bright VIC 3741",72e5e6ce-dfe2-45e0-ba1f-2ccef7049489,
53559031-c5e4-4de5-b00b-e686f0d4a799,"116 McCormacks Ln","Victorian High Country",1,72e5e6ce-dfe2-45e0-ba1f-2ccef7049489,"VIC",,-36.748524,146.892641,"116 McCormacks Lane, Buckland VIC 3740",72e5e6ce-dfe2-45e0-ba1f-2ccef7049489,
c827915f-443c-4908-853e-aed716c004d1,"137 Manby Rd","Victorian High Country",1,72e5e6ce-dfe2-45e0-ba1f-2ccef7049489,"VIC",,-37.564425,145.640992,"137 Manby Rd, Narbethong VIC 3778",72e5e6ce-dfe2-45e0-ba1f-2ccef7049489,
9fb0f294-1fbd-44a3-9b0c-e918eaee1bbe,"149 Reids Way Wooragee VIC 3747","Victorian High Country",1,72e5e6ce-dfe2-45e0-ba1f-2ccef7049489,"VIC",,-36.298988,146.690756,"149 Reids Way, Wooragee VIC 3747, Wooragee VIC 3747",72e5e6ce-dfe2-45e0-ba1f-2ccef7049489,
38b26911-c564-4c58-b8da-1d1a7e22ba6b,"19 Mcfadyens Ln","Victorian High Country",1,72e5e6ce-dfe2-45e0-ba1f-2ccef7049489,"VIC",,-36.737653,146.96017,"19 Mcfadyens Ln, Bright VIC",72e5e6ce-dfe2-45e0-ba1f-2ccef7049489,
38650db8-7278-4c21-862b-e4bd7e76f7f5,"28 Mountbatten Avenue Bright, Vic","Victorian High Country",1,72e5e6ce-dfe2-45e0-ba1f-2ccef7049489,"VIC",,-36.72661,146.968311,"28 Mountbatten Avenue, Bright VIC",72e5e6ce-dfe2-45e0-ba1f-2ccef7049489,
2ca450e2-9e68-4aa2-ba4c-28ea78622e65,"Mornington Peninsula, VIC","Victorian High Country",1,72e5e6ce-dfe2-45e0-ba1f-2ccef7049489,"VIC",,-37.064774,145.503135,"",72e5e6ce-dfe2-45e0-ba1f-2ccef7049489,
25e9c422-0fb3-48fc-8f26-27aaa7d86f45,"1590-1594 Mount Dandenong Tourist Rd","Yarra Valley",1,b7c00d92-8571-4376-a101-3af4aac21911,"VIC",,-37.854224,145.363228,"1590 Mount Dandenong Tourist Road, Olinda VIC 3788",b7c00d92-8571-4376-a101-3af4aac21911,
757d5747-37a4-4bec-8f3d-d3b84d44de99,"1602 Mount Dandenong Tourist Rd","Yarra Valley",1,b7c00d92-8571-4376-a101-3af4aac21911,"VIC",,-37.855495,145.36376,,b7c00d92-8571-4376-a101-3af4aac21911,
898166cd-8c57-45f6-a155-de12c5c69d44,"188-190 Falls Road, Olinda","Yarra Valley",1,b7c00d92-8571-4376-a101-3af4aac21911,"VIC",,-37.850978,145.367423,"188-190 Falls Road, Olinda, Victoria, Olinda VIC",b7c00d92-8571-4376-a101-3af4aac21911,
3eb73d11-6c94-437b-997a-4a12a775de94,"20 Hill Street, Pakenham","Yarra Valley",1,b7c00d92-8571-4376-a101-3af4aac21911,"VIC",,-38.087472,145.495527,"20 Hill Street, Pakenham VIC",,
e105867b-32b7-4550-a33a-364816eb3465,"21 Bell Street Yarra Glen Vic","Yarra Valley",1,b7c00d92-8571-4376-a101-3af4aac21911,"VIC",,-37.658415,145.374039,"21 Bell Street, Yarra Glen VIC 3775",b7c00d92-8571-4376-a101-3af4aac21911,
a176bcfb-7156-4446-9cf4-6581c8ac1c85,"215 Victoria Rd","Yarra Valley",1,b7c00d92-8571-4376-a101-3af4aac21911,"VIC",,-37.695222,145.345726,"215 Victoria Road, Yering, Yering VIC 3770",b7c00d92-8571-4376-a101-3af4aac21911,
8fe68a7a-c376-40d0-a9a5-ca45f705966d,"4 Jarmina Way","Yarra Valley",1,b7c00d92-8571-4376-a101-3af4aac21911,"VIC",,-37.945989,145.451316,"4 Jarmina Way, Emerald VIC",b7c00d92-8571-4376-a101-3af4aac21911,
7ae415fd-1f11-4238-851c-2444bfbc30c1,"4/1385 Healesville - Koo Wee Rup Rd","Yarra Valley",1,b7c00d92-8571-4376-a101-3af4aac21911,"VIC",,-37.779091,145.530966,"4/1385 Healesville - Koo Wee Rup Rd, Healesville VIC",b7c00d92-8571-4376-a101-3af4aac21911,
001a53da-6e5d-4149-b758-65b43251b88c,"54 Ingram Rd","Yarra Valley",1,b7c00d92-8571-4376-a101-3af4aac21911,"VIC",,-37.739374,145.433881,"54 Ingram Rd, Gruyere VIC",b7c00d92-8571-4376-a101-3af4aac21911,
8e3c5892-e1e7-4f10-b3f4-750929aceb48,"90 Shaftesbury Ave St Andrews","Yarra Valley",1,b7c00d92-8571-4376-a101-3af4aac21911,"VIC",,-37.605072,145.279352,"90 Shaftesbury Ave, St Andrews VIC",b7c00d92-8571-4376-a101-3af4aac21911,
d68080d6-739d-422b-90b5-8b5e54e83f3d,"Unit 4/1153 Main Rd, Eltham, VIC,","Yarra Valley",1,b7c00d92-8571-4376-a101-3af4aac21911,"VIC",,-37.705991,145.151381,,b7c00d92-8571-4376-a101-3af4aac21911,
f867e5a6-8879-4923-bc03-65b35d10a746,"31 Angove St","Australia's Golden Outback",1,368e6f5c-5548-404e-8325-250fa820d2d7,"WA",,-32.19225,121.77681,"31 Angove Street",368e6f5c-5548-404e-8325-250fa820d2d7,
5556cbf8-dcd9-49b4-bf54-0212507ffa20,"162 Haag Rd","Margaret River",1,184a15f9-a7b5-4096-b263-4643a1f2375e,"WA",,-33.71807,115.133271,"162 Haag Rd, Margaret River WA",184a15f9-a7b5-4096-b263-4643a1f2375e,
1c165b5f-835c-4cd1-9ec4-43ccae4a1ba1,"17 Huntington Court Quedjinup","Margaret River",1,184a15f9-a7b5-4096-b263-4643a1f2375e,"WA",,-33.628566,115.070841,"17 Huntington Court, Quedjinup WA",184a15f9-a7b5-4096-b263-4643a1f2375e,
dc146661-66fb-4704-b829-585e8316d771,"18 O’Brien St, Cowaramup WA","Margaret River",1,184a15f9-a7b5-4096-b263-4643a1f2375e,"WA",,-33.849176,115.103356,"18 O'Brien St, Cowaramup WA, Cowaramup WA 6284",184a15f9-a7b5-4096-b263-4643a1f2375e,
b3349a51-7e77-4a47-80e3-affb6bf41630,"1958 Caves Rd","Margaret River",1,184a15f9-a7b5-4096-b263-4643a1f2375e,"WA",,-33.62825,115.059993,"1958 Caves Road, Yallingup WA",184a15f9-a7b5-4096-b263-4643a1f2375e,
69c73a50-3315-418d-b971-5c416eded541,"31 Cape Clairault Rd","Margaret River",1,184a15f9-a7b5-4096-b263-4643a1f2375e,"WA",,-33.686639,114.99739,"31 Cape Clairault Rd, Injidup WA",184a15f9-a7b5-4096-b263-4643a1f2375e,
93a745fc-68c3-4676-9e63-4cb100dd6581,"43a Town View Terrace","Margaret River",1,184a15f9-a7b5-4096-b263-4643a1f2375e,"WA",,-33.950406,115.075757,"43a Town View Terrace, Margaret River WA",184a15f9-a7b5-4096-b263-4643a1f2375e,
0e5f2666-8d7d-4d0e-9f69-d7cb7d8a7c91,"498 Osmington Road, Margaret River","Margaret River",1,184a15f9-a7b5-4096-b263-4643a1f2375e,"WA",,-33.917477,115.134303,"498 Osmington Road, Margaret River WA",184a15f9-a7b5-4096-b263-4643a1f2375e,
7c3b3425-e166-4eb8-83c8-531038f65e6c,"54 Sheens Road, Naturaliste Western Australia","Margaret River",1,184a15f9-a7b5-4096-b263-4643a1f2375e,"WA","Naturaliste",-33.579969,115.075557,"54 Sheens Road, Naturaliste WA",184a15f9-a7b5-4096-b263-4643a1f2375e,
3cb7e6f7-801d-4ea8-9acf-aea0056d0840,"92 Holben Rd","Margaret River",1,184a15f9-a7b5-4096-b263-4643a1f2375e,"WA",,-33.881919,115.143784,"92 Holben Rd, Cowaramup WA",184a15f9-a7b5-4096-b263-4643a1f2375e,
c0aab272-5852-40cf-9304-dc43ed361702,"LOT 3503 CAVES ROAD, WILYABRUP, WA","Margaret River",1,184a15f9-a7b5-4096-b263-4643a1f2375e,"WA",,-33.746602,115.032452,"LOT 3503 CAVES ROAD, WILYABRUP WA",184a15f9-a7b5-4096-b263-4643a1f2375e,
68c891c0-36fe-4975-8625-502e4df82710,"Margaret River, WA","Margaret River",1,184a15f9-a7b5-4096-b263-4643a1f2375e,"WA",,-33.951023,115.073814,,184a15f9-a7b5-4096-b263-4643a1f2375e,
f699ed73-d4ee-40bd-8bbc-40bf75c0a19f,"Armstrong Road, Rosebank New South Wales 2480","Northern Rivers",1,996a8c7c-e2ad-4ccf-aed3-bf74a0687ebb,"WA",,-28.676954,153.380891,,996a8c7c-e2ad-4ccf-aed3-bf74a0687ebb,
4bd2c8db-d6cc-45e1-92ec-2621226d3853,"104 Frobisher St","Perth",1,6db96085-9bfe-45be-a2a9-e82b5fe66c91,"WA",,-31.9047,115.81978,"104 Frobisher Street",6db96085-9bfe-45be-a2a9-e82b5fe66c91,
34ad5806-cf7d-4988-815a-2f1ab5809b49,"1200 Alison St","Perth",1,6db96085-9bfe-45be-a2a9-e82b5fe66c91,"WA",,-31.85736,116.21475,"1200 Alison Street, Mount Helena WA 6082",6db96085-9bfe-45be-a2a9-e82b5fe66c91,
4ae2bedb-95b1-4fe5-9a25-5a60d372c3c6,"136 Railway Parade","Perth",1,6db96085-9bfe-45be-a2a9-e82b5fe66c91,"WA",,-31.9193,115.90656,"136 Railway Parade",6db96085-9bfe-45be-a2a9-e82b5fe66c91,
6da74110-862a-4441-81f5-5fe46c56ff94,"15 Point St","Perth",1,6db96085-9bfe-45be-a2a9-e82b5fe66c91,"WA","Fremantle",-32.052203,115.749015,"15 Point Street, Fremantle WA",6db96085-9bfe-45be-a2a9-e82b5fe66c91,
8dc5f55e-82a3-4be9-8691-16a4d3dca960,"162 Aberdeen St","Perth",1,6db96085-9bfe-45be-a2a9-e82b5fe66c91,"WA",,-31.944619,115.855425,"162 Aberdeen St",6db96085-9bfe-45be-a2a9-e82b5fe66c91,
dba2d61b-9b85-49be-8aff-1e8ff4744963,"17 High Street, Fremantle","Perth",1,6db96085-9bfe-45be-a2a9-e82b5fe66c91,"WA",,-32.050725,115.760641,"17 High Street, Fremantle WA",6db96085-9bfe-45be-a2a9-e82b5fe66c91,
d63530bd-0ea7-4c62-a2bb-48361e1be845,"18-22 Ord Street,","Perth",1,6db96085-9bfe-45be-a2a9-e82b5fe66c91,"WA",,-32.052438,115.755081,"18-22 Ord Street, Fremantle WA 6160",6db96085-9bfe-45be-a2a9-e82b5fe66c91,
5a55ae43-1699-4821-aa47-85f27ab5fcb7,"2/231 Main Rd","Perth",1,6db96085-9bfe-45be-a2a9-e82b5fe66c91,"WA","Mount Hawthorn",-31.920295,115.837593,"77 Coogee Street, Mount Hawthorn 6016, Mount Hawthorn WA 6016",6db96085-9bfe-45be-a2a9-e82b5fe66c91,6db96085-9bfe-45be-a2a9-e82b5fe66c91
52e89c72-0e5c-42b2-b637-982b0d4dda32,"233a Drumpellier Drive Whiteman, Western Australia","Perth",1,6db96085-9bfe-45be-a2a9-e82b5fe66c91,"WA",,-31.83477,115.964716,"233a Drumpellier Drive, Whiteman WA",6db96085-9bfe-45be-a2a9-e82b5fe66c91,
a8fe1d1b-41e2-4186-b8af-9e520fe0700d,"243 Beaufort St","Perth",1,6db96085-9bfe-45be-a2a9-e82b5fe66c91,"WA",,-31.945254,115.864814,"243 Beaufort St",6db96085-9bfe-45be-a2a9-e82b5fe66c91,
4540239a-bb60-4d05-ae0e-4d76569503a0,"28 Rudloc Rd","Perth",1,6db96085-9bfe-45be-a2a9-e82b5fe66c91,"WA",,-31.901641,115.898866,"28 Rudloc Rd",6db96085-9bfe-45be-a2a9-e82b5fe66c91,
71e7ee55-d38c-4ad1-bf18-38dd8f700b85,"282 South Tce, South Fremantle","Perth",1,6db96085-9bfe-45be-a2a9-e82b5fe66c91,"WA",,-32.066241,115.752747,"282 South Terrace, South Fremantle WA",6db96085-9bfe-45be-a2a9-e82b5fe66c91,
6ce3dcb0-63cb-4802-b0ce-823cb6431fd7,"2c Johnson Road Maylands WA 6051","Perth",1,6db96085-9bfe-45be-a2a9-e82b5fe66c91,"WA","Maylands",-31.942746,115.910325,"2c Johnson Road, Maylands WA 6051",6db96085-9bfe-45be-a2a9-e82b5fe66c91,
6e89831b-fd04-4250-b874-096955c74365,"3 Preston Street   Como WA 6152   Western Australia","Perth",1,6db96085-9bfe-45be-a2a9-e82b5fe66c91,"WA","Como",-31.99416,115.85694,"3 Preston Street, Como WA 6152",6db96085-9bfe-45be-a2a9-e82b5fe66c91,
34e64315-07d0-4de7-a2f9-269de3b550c8,"30 Drake St","Perth",1,6db96085-9bfe-45be-a2a9-e82b5fe66c91,"WA",,-31.908708,115.816664,"30 Drake Street",6db96085-9bfe-45be-a2a9-e82b5fe66c91,
c2631ec8-b058-43ce-a783-2bed7f214a96,"30 Mundaring Weir Road  Kalamunda","Perth",1,6db96085-9bfe-45be-a2a9-e82b5fe66c91,"WA",,-31.97405,116.06684,"30 Mundaring Weir Road, Kalamunda WA",6db96085-9bfe-45be-a2a9-e82b5fe66c91,
3c00c546-1de6-4d93-aa92-34be16a2735b,"301 Lord St, Beechboro Western Australia","Perth",1,6db96085-9bfe-45be-a2a9-e82b5fe66c91,"WA","Highgate",-31.943355,115.873515,"301 Lord Street, Highgate WA 6003",6db96085-9bfe-45be-a2a9-e82b5fe66c91,
ddf9fef9-d16f-4357-8030-9173273ffbd7,"40 Marine Parade","Perth",1,6db96085-9bfe-45be-a2a9-e82b5fe66c91,"WA","Cottesloe",-32.009357,115.752994,"40 Marine Parade, Cottesloe, Cottesloe WA 6011",6db96085-9bfe-45be-a2a9-e82b5fe66c91,
4ca7f5f5-3cd0-47a4-a22c-5434ab7df7e7,"41 Welshpool Rd","Perth",1,6db96085-9bfe-45be-a2a9-e82b5fe66c91,"WA",,-31.99428,115.91876,"41 Welshpool Rd",6db96085-9bfe-45be-a2a9-e82b5fe66c91,
d04bf153-76a6-4eb7-86ee-cc5069df6ba2,"42 Mount St","Perth",1,6db96085-9bfe-45be-a2a9-e82b5fe66c91,"WA",,-31.953994,115.847742,"42 Mount Street",6db96085-9bfe-45be-a2a9-e82b5fe66c91,
010e428a-c8ab-4119-93fe-0867ca2abc35,"43 Attfield St","Perth",1,6db96085-9bfe-45be-a2a9-e82b5fe66c91,"WA",,-32.05306,115.97833,"43 Attfield Street, Maddington Shopping Centre, Maddington WA 6109",6db96085-9bfe-45be-a2a9-e82b5fe66c91,
dfb881fb-551c-4e89-a146-7c84317cfc08,"448 Nicholson Rd Forrestdale Western Australia","Perth",1,6db96085-9bfe-45be-a2a9-e82b5fe66c91,"WA","Forrestdale",-32.152542,115.919754,"448 Nicholson Rd, Forrestdale WA",6db96085-9bfe-45be-a2a9-e82b5fe66c91,
dfbfc7fa-2a01-457f-bbb9-354a7d4f473e,"464 William St","Perth",1,6db96085-9bfe-45be-a2a9-e82b5fe66c91,"WA","Perth",-31.941856,115.863627,"464 William St, Perth WA 6000, Australia",6db96085-9bfe-45be-a2a9-e82b5fe66c91,
2c597a13-b9c2-4104-8df5-04075fecea83,"525 Falls Rd","Perth",1,6db96085-9bfe-45be-a2a9-e82b5fe66c91,"WA",,-31.878709,116.128622,"525 Falls Rd, Perth Hills WA",6db96085-9bfe-45be-a2a9-e82b5fe66c91,
ac204aa3-433f-46c7-9a0d-75e6824e66ba,"623 Warton Rd","Perth",1,6db96085-9bfe-45be-a2a9-e82b5fe66c91,"WA","Piara Waters",-32.118217,115.913969,"623 Warton Road, Piara Waters WA",6db96085-9bfe-45be-a2a9-e82b5fe66c91,
74895741-db83-40d4-85fd-c330d227d569,"68 Nettleton Rd","Perth",1,6db96085-9bfe-45be-a2a9-e82b5fe66c91,"WA","Byford",-32.23066,116.013362,"68 Nettleton Rd, Byford, WA 6122, Byford WA 6122",6db96085-9bfe-45be-a2a9-e82b5fe66c91,
11ac057f-2932-4aa2-8413-d529a85bac83,"7/15 Port Kembla Dr","Perth",1,6db96085-9bfe-45be-a2a9-e82b5fe66c91,"WA",,-32.09668,115.80139,"7/15 Port Kembla Drive",6db96085-9bfe-45be-a2a9-e82b5fe66c91,
102208ba-1f47-4a9d-ba10-aed8c30110d6,"772 Beaufort St","Perth",1,6db96085-9bfe-45be-a2a9-e82b5fe66c91,"WA",,-31.927761,115.878915,"772 Beaufort St, Mount Lawley WA",6db96085-9bfe-45be-a2a9-e82b5fe66c91,
